{
  "version": 0.6,
  "generator": "Overpass API 0.7.62.11 87bfad18",
  "osm3s": {
    "timestamp_osm_base": "2026-05-28T18:27:45Z",
    "copyright": "The data included in this document is from www.openstreetmap.org. The data is made available under ODbL."
  },
  "elements": [

{
  "type": "node",
  "id": 442657700,
  "lat": 18.7834341,
  "lon": 99.0058788,
  "tags": {
    "alt_name": "Rim Ping Supermarket",
    "name": "Rimping Supermarket",
    "name:en": "Rimping Supermarket",
    "name:th": "ริมปิงซูเปอร์มาร์เก็ต",
    "name:zh": "邻宾超市（Nim City旗舰店）",
    "shop": "supermarket",
    "website": "https://www.rimping.com/",
    "wheelchair": "yes"
  }
},
{
  "type": "node",
  "id": 725689588,
  "lat": 18.7896967,
  "lon": 98.9696221,
  "tags": {
    "amenity": "hospital",
    "healthcare": "hospital",
    "name": "โรงพยาบาลประสาทเชียงใหม่",
    "name:en": "Chiang Mai Neurological Hospital",
    "name:ja": "チェンマイ神経病院",
    "name:th": "โรงพยาบาลประสาทเชียงใหม่"
  }
},
{
  "type": "node",
  "id": 725689632,
  "lat": 18.8060035,
  "lon": 98.9595445,
  "tags": {
    "alt_name": "7-11",
    "brand": "7-Eleven",
    "brand:website": "http://www.7eleven.co.th/",
    "brand:wikidata": "Q259340",
    "brand:wikipedia": "th:เซเว่น อีเลฟเว่น",
    "check_date": "2024-02-11",
    "level": "0",
    "name": "7-Eleven",
    "name:en": "7-Eleven",
    "operator": "Seven & I Holdings",
    "payment:cash": "yes",
    "payment:mastercard": "yes",
    "payment:visa": "yes",
    "shop": "convenience"
  }
},
{
  "type": "node",
  "id": 725689676,
  "lat": 18.8087882,
  "lon": 98.9466099,
  "tags": {
    "alt_name": "7-11",
    "brand": "7-Eleven",
    "brand:website": "http://www.7eleven.co.th/",
    "brand:wikidata": "Q259340",
    "brand:wikipedia": "th:เซเว่น อีเลฟเว่น",
    "name": "7-Eleven",
    "name:en": "7-Eleven",
    "shop": "convenience"
  }
},
{
  "type": "node",
  "id": 725689741,
  "lat": 18.7952619,
  "lon": 98.9627112,
  "tags": {
    "alt_name": "7-11",
    "brand": "7-Eleven",
    "brand:website": "http://www.7eleven.co.th/",
    "brand:wikidata": "Q259340",
    "brand:wikipedia": "th:เซเว่น อีเลฟเว่น",
    "name": "7-Eleven",
    "name:en": "7-Eleven",
    "opening_hours": "24/7",
    "operator": "Seven & I Holdings",
    "shop": "convenience"
  }
},
{
  "type": "node",
  "id": 772433650,
  "lat": 18.8111861,
  "lon": 99.0113114,
  "tags": {
    "alt_name": "7-11",
    "brand": "7-Eleven",
    "brand:website": "http://www.7eleven.co.th/",
    "brand:wikidata": "Q259340",
    "brand:wikipedia": "th:เซเว่น อีเลฟเว่น",
    "name": "7-Eleven",
    "name:en": "7-Eleven",
    "opening_hours": "24/7",
    "shop": "convenience"
  }
},
{
  "type": "node",
  "id": 772433651,
  "lat": 18.8110439,
  "lon": 99.0112980,
  "tags": {
    "amenity": "pharmacy",
    "name": "ฟาร์ม่า ชอยส์",
    "name:en": "Pharma Choice",
    "name:th": "ฟาร์ม่า ชอยส์"
  }
},
{
  "type": "node",
  "id": 820315887,
  "lat": 18.7839017,
  "lon": 98.9967176,
  "tags": {
    "shop": "laundry"
  }
},
{
  "type": "node",
  "id": 820812671,
  "lat": 18.7840553,
  "lon": 98.9947499,
  "tags": {
    "created_by": "Vespucci 0.6.5",
    "shop": "convenience"
  }
},
{
  "type": "node",
  "id": 820836246,
  "lat": 18.7848031,
  "lon": 98.9943303,
  "tags": {
    "amenity": "pharmacy",
    "name": "Drug Etc",
    "name:en": "Drug Etc",
    "name:th": "ร้านเภสัชกร",
    "source": "http://www.mapillary.com/map/im/1aU1_d4GV8FC2ixeqpB_DQ"
  }
},
{
  "type": "node",
  "id": 822570174,
  "lat": 18.7841852,
  "lon": 98.9963991,
  "tags": {
    "addr:housenumber": "56",
    "addr:street": "ถนนลอยเคราะห์",
    "amenity": "pharmacy",
    "name": "ร้าน 56เภสัชกร",
    "name:en": "56 Pharmacy",
    "name:th": "ร้าน 56เภสัชกร",
    "opening_hours": "Mo-Su 10:00-22:00"
  }
},
{
  "type": "node",
  "id": 907784581,
  "lat": 18.7431272,
  "lon": 98.9616232,
  "tags": {
    "amenity": "pharmacy",
    "name": "Boots"
  }
},
{
  "type": "node",
  "id": 915447899,
  "lat": 18.7892385,
  "lon": 99.0012101,
  "tags": {
    "addr:housenumber": "93",
    "addr:street": "ถนนวิชยานนท์",
    "amenity": "pharmacy",
    "name": "วิชยนนท์เภสัช",
    "name:en": "Vitchayanont Bhesaj",
    "name:th": "วิชยนนท์เภสัช"
  }
},
{
  "type": "node",
  "id": 915481295,
  "lat": 18.7909178,
  "lon": 99.0008418,
  "tags": {
    "alt_name": "7-11",
    "brand": "7-Eleven",
    "brand:website": "http://www.7eleven.co.th/",
    "brand:wikidata": "Q259340",
    "brand:wikipedia": "th:เซเว่น อีเลฟเว่น",
    "name": "7-Eleven",
    "name:en": "7-Eleven",
    "shop": "convenience"
  }
},
{
  "type": "node",
  "id": 1024286071,
  "lat": 18.7749733,
  "lon": 98.9904939,
  "tags": {
    "amenity": "pharmacy"
  }
},
{
  "type": "node",
  "id": 1024288629,
  "lat": 18.7742794,
  "lon": 98.9898613,
  "tags": {
    "amenity": "pharmacy"
  }
},
{
  "type": "node",
  "id": 1026006144,
  "lat": 18.7810135,
  "lon": 98.9884318,
  "tags": {
    "amenity": "pharmacy",
    "name": "สยามชัย เภสัช",
    "name:en": "Sayam Chai Pharmacy",
    "name:th": "สยามชัย เภสัช",
    "opening_hours": "Mo-Fr 07:30-21:00; Sa 07:30-22:00; Su 09:00-18:00"
  }
},
{
  "type": "node",
  "id": 1030381905,
  "lat": 18.7717791,
  "lon": 98.9772000,
  "tags": {
    "alt_name": "Rim Ping Supermarket",
    "name": "Rimping Supermarket",
    "name:en": "Rimping Supermarket",
    "name:ja": "リンピン　スーパーマーケット",
    "name:th": "ริมปิงซูเปอร์มาร์เก็ต",
    "opening_hours": "Mo-Su 08:00-21:00",
    "shop": "supermarket",
    "website": "https://www.rimping.com/"
  }
},
{
  "type": "node",
  "id": 1030382176,
  "lat": 18.7717361,
  "lon": 98.9770876,
  "tags": {
    "amenity": "pharmacy",
    "name:en": "First Drug",
    "opening_hours": "Mo-Su 09:00-21:00"
  }
},
{
  "type": "node",
  "id": 1030391638,
  "lat": 18.7809171,
  "lon": 98.9875075,
  "tags": {
    "alt_name": "7-11",
    "brand": "7-Eleven",
    "brand:website": "http://www.7eleven.co.th/",
    "brand:wikidata": "Q259340",
    "brand:wikipedia": "th:เซเว่น อีเลฟเว่น",
    "name": "7-Eleven",
    "name:en": "7-Eleven",
    "opening_hours": "24/7",
    "shop": "convenience"
  }
},
{
  "type": "node",
  "id": 1030391641,
  "lat": 18.7815367,
  "lon": 98.9877001,
  "tags": {
    "name": "Lotus's go fresh",
    "opening_hours": "24/7",
    "operator": "Tesco Lotus",
    "shop": "convenience"
  }
},
{
  "type": "node",
  "id": 1034645681,
  "lat": 18.7770144,
  "lon": 98.9994224,
  "tags": {
    "alt_name": "7-11",
    "brand": "7-Eleven",
    "brand:website": "http://www.7eleven.co.th/",
    "brand:wikidata": "Q259340",
    "brand:wikipedia": "th:เซเว่น อีเลฟเว่น",
    "name": "7-Eleven",
    "name:en": "7-Eleven",
    "opening_hours": "24/7",
    "shop": "convenience"
  }
},
{
  "type": "node",
  "id": 1038125600,
  "lat": 18.8165882,
  "lon": 98.9919938,
  "tags": {
    "shop": "convenience"
  }
},
{
  "type": "node",
  "id": 1038125601,
  "lat": 18.8164379,
  "lon": 98.9919905,
  "tags": {
    "shop": "convenience"
  }
},
{
  "type": "node",
  "id": 1074593974,
  "lat": 18.7979398,
  "lon": 98.9664296,
  "tags": {
    "alt_name": "7-11",
    "brand": "7-Eleven",
    "brand:website": "http://www.7eleven.co.th/",
    "brand:wikidata": "Q259340",
    "brand:wikipedia": "th:เซเว่น อีเลฟเว่น",
    "name": "7-Eleven",
    "name:en": "7-Eleven",
    "opening_hours": "24/7",
    "operator": "Seven & I Holdings",
    "shop": "convenience",
    "source": "http://www.mapillary.com/map/im/7X_14L14dzMVDT2GJfUa5w",
    "wheelchair": "yes"
  }
},
{
  "type": "node",
  "id": 1074593976,
  "lat": 18.7979992,
  "lon": 98.9664665,
  "tags": {
    "amenity": "pharmacy",
    "healthcare": "pharmacy",
    "name": "Quality Drug",
    "wheelchair": "limited"
  }
},
{
  "type": "node",
  "id": 1130949809,
  "lat": 18.7852417,
  "lon": 99.0028246,
  "tags": {
    "addr:housenumber": "46/2-3",
    "addr:street": "ถนนเจริญประเทศ",
    "name": "ธ.เจริญเภสัช",
    "name:en": "Mini Market",
    "name:th": "ธ.เจริญเภสัช",
    "shop": "convenience"
  }
},
{
  "type": "node",
  "id": 1131144927,
  "lat": 18.7968320,
  "lon": 98.9660709,
  "tags": {
    "alt_name": "7-11",
    "brand": "7-Eleven",
    "brand:website": "http://www.7eleven.co.th/",
    "brand:wikidata": "Q259340",
    "brand:wikipedia": "th:เซเว่น อีเลฟเว่น",
    "check_date": "2025-02-19",
    "name": "7-Eleven",
    "name:en": "7-Eleven",
    "opening_hours": "24/7",
    "operator": "Seven & I Holdings",
    "shop": "convenience",
    "wheelchair": "yes"
  }
},
{
  "type": "node",
  "id": 1156108491,
  "lat": 18.7410989,
  "lon": 98.9906404,
  "tags": {
    "shop": "convenience"
  }
},
{
  "type": "node",
  "id": 1173899449,
  "lat": 18.7684480,
  "lon": 99.0063104,
  "tags": {
    "name:en": "TESCO Lotus Express",
    "shop": "convenience"
  }
},
{
  "type": "node",
  "id": 1358869282,
  "lat": 18.7526226,
  "lon": 99.0093720,
  "tags": {
    "alt_name": "7-11",
    "brand": "7-Eleven",
    "brand:website": "http://www.7eleven.co.th/",
    "brand:wikidata": "Q259340",
    "brand:wikipedia": "th:เซเว่น อีเลฟเว่น",
    "name": "7-Eleven",
    "name:en": "7-Eleven",
    "opening_hours": "24/7",
    "operator": "Seven & I Holdings",
    "shop": "convenience"
  }
},
{
  "type": "node",
  "id": 1358898658,
  "lat": 18.7524305,
  "lon": 99.0095837,
  "tags": {
    "brand": "Tesco",
    "brand:wikidata": "Q487494",
    "name": "Lotus's",
    "opening_hours": "24/7",
    "operator": "Tesco Lotus",
    "shop": "convenience"
  }
},
{
  "type": "node",
  "id": 1365393104,
  "lat": 18.7973030,
  "lon": 98.9990926,
  "tags": {
    "amenity": "pharmacy"
  }
},
{
  "type": "node",
  "id": 1365394246,
  "lat": 18.7971173,
  "lon": 98.9985754,
  "tags": {
    "amenity": "pharmacy"
  }
},
{
  "type": "node",
  "id": 1474871809,
  "lat": 18.7682035,
  "lon": 98.9683026,
  "tags": {
    "amenity": "pharmacy",
    "healthcare": "pharmacy",
    "level": "2",
    "name": "ร้านขายยา ฟาม่าเวย์",
    "name:en": "Pharmaway",
    "name:th": "ร้านขายยา ฟาม่าเวย์"
  }
},
{
  "type": "node",
  "id": 1474872537,
  "lat": 18.7698309,
  "lon": 98.9683216,
  "tags": {
    "name": "The Royal Project",
    "opening_hours": "PH,Mo-Su 06:30-20:00",
    "shop": "convenience"
  }
},
{
  "type": "node",
  "id": 1474872628,
  "lat": 18.7696245,
  "lon": 98.9678221,
  "tags": {
    "amenity": "pharmacy",
    "healthcare": "pharmacy",
    "name": "ร้านขายยา ฟาม่าเวย์",
    "name:en": "Pharmaway",
    "name:th": "ร้านขายยา ฟาม่าเวย์"
  }
},
{
  "type": "node",
  "id": 1477520499,
  "lat": 18.7800218,
  "lon": 98.9937882,
  "tags": {
    "shop": "laundry"
  }
},
{
  "type": "node",
  "id": 1477520816,
  "lat": 18.7802486,
  "lon": 98.9936580,
  "tags": {
    "shop": "convenience"
  }
},
{
  "type": "node",
  "id": 1477719926,
  "lat": 18.7820304,
  "lon": 98.9944391,
  "tags": {
    "shop": "convenience"
  }
},
{
  "type": "node",
  "id": 1477733913,
  "lat": 18.7840387,
  "lon": 98.9949461,
  "tags": {
    "name": "PJ บ้านเครื่องดื่ม",
    "name:en": "PJ",
    "name:th": "PJ บ้านเครื่องดื่ม",
    "opening_hours": "24/7",
    "shop": "convenience"
  }
},
{
  "type": "node",
  "id": 1489645286,
  "lat": 18.7907343,
  "lon": 98.9609356,
  "tags": {
    "brand": "Lotus's go fresh",
    "name": "Lotus's go fresh",
    "opening_hours": "24/7",
    "operator": "Tesco Lotus",
    "shop": "convenience",
    "source": "http://www.mapillary.com/map/im/YhaMuC6_f8ieLhm8dnZrkg"
  }
},
{
  "type": "node",
  "id": 1489645366,
  "lat": 18.7789245,
  "lon": 98.9584642,
  "tags": {
    "alt_name": "7-11",
    "brand": "7-Eleven",
    "brand:website": "http://www.7eleven.co.th/",
    "brand:wikidata": "Q259340",
    "brand:wikipedia": "th:เซเว่น อีเลฟเว่น",
    "building:levels": "1",
    "name": "7-Eleven",
    "name:en": "7-Eleven",
    "opening_hours": "24/7",
    "shop": "convenience"
  }
},
{
  "type": "node",
  "id": 1491290287,
  "lat": 18.7907721,
  "lon": 98.9905317,
  "tags": {
    "amenity": "pharmacy",
    "opening_hours": "Mo-Su 10:00-21:00",
    "source": "http://www.mapillary.com/map/im/aeVKjDUigjY3lLHMyH5SCQ"
  }
},
{
  "type": "node",
  "id": 1491328231,
  "lat": 18.7905499,
  "lon": 98.9918956,
  "tags": {
    "shop": "laundry"
  }
},
{
  "type": "node",
  "id": 1491349953,
  "lat": 18.7911707,
  "lon": 98.9938127,
  "tags": {
    "alt_name": "7-11",
    "brand": "7-Eleven",
    "brand:website": "http://www.7eleven.co.th/",
    "brand:wikidata": "Q259340",
    "brand:wikipedia": "th:เซเว่น อีเลฟเว่น",
    "name": "7-Eleven",
    "name:en": "7-Eleven",
    "opening_hours": "24/7",
    "shop": "convenience"
  }
},
{
  "type": "node",
  "id": 1491428081,
  "lat": 18.7912152,
  "lon": 98.9953675,
  "tags": {
    "shop": "laundry"
  }
},
{
  "type": "node",
  "id": 1491444475,
  "lat": 18.7910944,
  "lon": 98.9966598,
  "tags": {
    "laundry_service": "yes",
    "self_service": "yes",
    "shop": "laundry"
  }
},
{
  "type": "node",
  "id": 1492467188,
  "lat": 18.7905346,
  "lon": 98.9614907,
  "tags": {
    "alt_name": "7-11",
    "brand": "7-Eleven",
    "brand:website": "http://www.7eleven.co.th/",
    "brand:wikidata": "Q259340",
    "brand:wikipedia": "th:เซเว่น อีเลฟเว่น",
    "name": "7-Eleven",
    "name:en": "7-Eleven",
    "opening_hours": "24/7",
    "shop": "convenience",
    "source": "http://www.mapillary.com/map/im/X0D6_YeUNkE2gbM3vMSvEg"
  }
},
{
  "type": "node",
  "id": 1595585874,
  "lat": 18.8073847,
  "lon": 98.9562041,
  "tags": {
    "alt_name": "7-11",
    "brand": "7-Eleven",
    "brand:website": "http://www.7eleven.co.th/",
    "brand:wikidata": "Q259340",
    "brand:wikipedia": "th:เซเว่น อีเลฟเว่น",
    "name": "7-Eleven",
    "name:en": "7-Eleven",
    "opening_hours": "24/7",
    "operator": "Seven & I Holdings",
    "shop": "convenience"
  }
},
{
  "type": "node",
  "id": 1595614860,
  "lat": 18.7959662,
  "lon": 98.9861647,
  "tags": {
    "alt_name": "7-11",
    "brand": "7-Eleven",
    "brand:website": "http://www.7eleven.co.th/",
    "brand:wikidata": "Q259340",
    "brand:wikipedia": "th:เซเว่น อีเลฟเว่น",
    "name": "7-Eleven",
    "name:en": "7-Eleven",
    "opening_hours": "24/7",
    "operator": "Seven & I Holdings",
    "shop": "convenience"
  }
},
{
  "type": "node",
  "id": 1595614864,
  "lat": 18.8059509,
  "lon": 98.9589897,
  "tags": {
    "alt_name": "7-11",
    "brand": "7-Eleven",
    "brand:website": "http://www.7eleven.co.th/",
    "brand:wikidata": "Q259340",
    "brand:wikipedia": "th:เซเว่น อีเลฟเว่น",
    "name": "7-Eleven",
    "name:en": "7-Eleven",
    "opening_hours": "24/7",
    "operator": "Seven & I Holdings",
    "shop": "convenience"
  }
},
{
  "type": "node",
  "id": 1600491091,
  "lat": 18.7690266,
  "lon": 98.9762223,
  "tags": {
    "brand": "Tops",
    "brand:en": "Tops",
    "brand:th": "ท็อปส์",
    "brand:wikidata": "Q7825140",
    "level": "0",
    "name": "Tops",
    "name:en": "Tops",
    "name:th": "ท็อปส์",
    "opening_hours": "Mo-Su 08:00-21:00",
    "shop": "supermarket",
    "website": "https://www.tops.co.th/"
  }
},
{
  "type": "node",
  "id": 1602168162,
  "lat": 18.7627190,
  "lon": 98.9434431,
  "tags": {
    "shop": "convenience"
  }
},
{
  "type": "node",
  "id": 1615269494,
  "lat": 18.7857330,
  "lon": 98.9929202,
  "tags": {
    "amenity": "pharmacy",
    "name": "ร้านเภสัชกร ฟาม่าช้อย",
    "name:en": "Pharma Choice",
    "name:th": "ร้านเภสัชกร ฟาม่าช้อย"
  }
},
{
  "type": "node",
  "id": 1616141878,
  "lat": 18.8090468,
  "lon": 99.0112206,
  "tags": {
    "alt_name": "7-11",
    "brand": "7-Eleven",
    "brand:website": "http://www.7eleven.co.th/",
    "brand:wikidata": "Q259340",
    "brand:wikipedia": "th:เซเว่น อีเลฟเว่น",
    "name": "7-Eleven",
    "name:en": "7-Eleven",
    "opening_hours": "24/7",
    "shop": "convenience"
  }
},
{
  "type": "node",
  "id": 1617076614,
  "lat": 18.7963351,
  "lon": 98.9939200,
  "tags": {
    "alt_name": "7-11",
    "brand": "7-Eleven",
    "brand:website": "http://www.7eleven.co.th/",
    "brand:wikidata": "Q259340",
    "brand:wikipedia": "th:เซเว่น อีเลฟเว่น",
    "name": "7-Eleven",
    "name:en": "7-Eleven",
    "opening_hours": "24/7",
    "shop": "convenience"
  }
},
{
  "type": "node",
  "id": 1618122063,
  "lat": 18.7919419,
  "lon": 98.9819543,
  "tags": {
    "alt_name": "7-11",
    "brand": "7-Eleven",
    "brand:website": "https://www.7eleven.co.th/",
    "brand:wikidata": "Q259340",
    "brand:wikipedia": "th:เซเว่น อีเลฟเว่น",
    "check_date": "2024-01-13",
    "name": "7-Eleven",
    "name:en": "7-Eleven",
    "opening_hours": "24/7",
    "shop": "convenience"
  }
},
{
  "type": "node",
  "id": 1619218793,
  "lat": 18.7906688,
  "lon": 98.9894318,
  "tags": {
    "name": "CP Fresh Mart",
    "opening_hours": "Mo-Su 07:00-19:00",
    "shop": "convenience",
    "wheelchair": "limited"
  }
},
{
  "type": "node",
  "id": 1619287964,
  "lat": 18.7914491,
  "lon": 98.9876249,
  "tags": {
    "alt_name": "7-11",
    "brand": "7-Eleven",
    "brand:website": "http://www.7eleven.co.th/",
    "brand:wikidata": "Q259340",
    "brand:wikipedia": "th:เซเว่น อีเลฟเว่น",
    "name": "7-Eleven",
    "name:en": "7-Eleven",
    "opening_hours": "24/7",
    "shop": "convenience",
    "wheelchair": "no"
  }
},
{
  "type": "node",
  "id": 1619445283,
  "lat": 18.7886832,
  "lon": 98.9828506,
  "tags": {
    "alt_name": "7-11",
    "brand": "7-Eleven",
    "brand:website": "http://www.7eleven.co.th/",
    "brand:wikidata": "Q259340",
    "brand:wikipedia": "th:เซเว่น อีเลฟเว่น",
    "name": "7-Eleven",
    "name:en": "7-Eleven",
    "opening_hours": "24/7",
    "shop": "convenience"
  }
},
{
  "type": "node",
  "id": 1628665577,
  "lat": 18.7730014,
  "lon": 98.9984639,
  "tags": {
    "amenity": "hospital",
    "check_date": "2024-02-06",
    "name": "โรงพยาบาลเซ็นทรัลเชียงใหม่เมโมเรียล",
    "name:en": "Central Chiang Mai Memorial Hospital",
    "name:th": "โรงพยาบาลเซ็นทรัลเชียงใหม่เมโมเรียล"
  }
},
{
  "type": "node",
  "id": 1685453687,
  "lat": 18.7698891,
  "lon": 98.9987815,
  "tags": {
    "shop": "laundry"
  }
},
{
  "type": "node",
  "id": 1814987327,
  "lat": 18.7905807,
  "lon": 98.9562503,
  "tags": {
    "alt_name": "7-11",
    "brand": "7-Eleven",
    "brand:website": "http://www.7eleven.co.th/",
    "brand:wikidata": "Q259340",
    "brand:wikipedia": "th:เซเว่น อีเลฟเว่น",
    "name": "7-Eleven",
    "name:en": "7-Eleven",
    "opening_hours": "24/7",
    "shop": "convenience"
  }
},
{
  "type": "node",
  "id": 1819823722,
  "lat": 18.7992667,
  "lon": 98.9610676,
  "tags": {
    "alt_name": "7-11",
    "brand": "7-Eleven",
    "brand:website": "http://www.7eleven.co.th/",
    "brand:wikidata": "Q259340",
    "brand:wikipedia": "th:เซเว่น อีเลฟเว่น",
    "name": "7-Eleven",
    "name:en": "7-Eleven",
    "opening_hours": "24/7",
    "shop": "convenience"
  }
},
{
  "type": "node",
  "id": 1851232864,
  "lat": 18.7906053,
  "lon": 98.9613091,
  "tags": {
    "amenity": "pharmacy",
    "name": "สมศักดิ์เภสัช 2",
    "name:en": "Somsak Pharmacy 2",
    "name:th": "สมศักดิ์เภสัช 2"
  }
},
{
  "type": "node",
  "id": 1851236186,
  "lat": 18.7907018,
  "lon": 98.9610352,
  "tags": {
    "amenity": "pharmacy"
  }
},
{
  "type": "node",
  "id": 1858680853,
  "lat": 18.8062972,
  "lon": 98.9784390,
  "tags": {
    "amenity": "pharmacy",
    "name": "เวียงบัวฟาร์มาซี",
    "name:en": "Viangbua Pharmacy",
    "name:th": "เวียงบัวฟาร์มาซี"
  }
},
{
  "type": "node",
  "id": 1923370067,
  "lat": 18.7973579,
  "lon": 98.9530624,
  "tags": {
    "name": "7/11",
    "shop": "convenience"
  }
},
{
  "type": "node",
  "id": 1931786094,
  "lat": 18.7602326,
  "lon": 99.0068687,
  "tags": {
    "alt_name": "7-11",
    "brand": "7-Eleven",
    "brand:website": "http://www.7eleven.co.th/",
    "brand:wikidata": "Q259340",
    "brand:wikipedia": "th:เซเว่น อีเลฟเว่น",
    "name": "7-Eleven",
    "name:en": "7-Eleven",
    "opening_hours": "24/7",
    "shop": "convenience",
    "source": "http://www.mapillary.com/map/im/L0jyXXmeCXVsZOtps2YRdg"
  }
},
{
  "type": "node",
  "id": 1931787953,
  "lat": 18.7655483,
  "lon": 99.0054737,
  "tags": {
    "alt_name": "7-11",
    "brand": "7-Eleven",
    "brand:website": "http://www.7eleven.co.th/",
    "brand:wikidata": "Q259340",
    "brand:wikipedia": "th:เซเว่น อีเลฟเว่น",
    "name": "7-Eleven",
    "name:en": "7-Eleven",
    "opening_hours": "24/7",
    "shop": "convenience"
  }
},
{
  "type": "node",
  "id": 1936293993,
  "lat": 18.7976345,
  "lon": 99.0088548,
  "tags": {
    "alt_name": "7-11",
    "brand": "7-Eleven",
    "brand:website": "http://www.7eleven.co.th/",
    "brand:wikidata": "Q259340",
    "brand:wikipedia": "th:เซเว่น อีเลฟเว่น",
    "name": "7-Eleven",
    "name:en": "7-Eleven",
    "opening_hours": "24/7",
    "shop": "convenience"
  }
},
{
  "type": "node",
  "id": 1956897070,
  "lat": 18.7440483,
  "lon": 98.9959817,
  "tags": {
    "amenity": "pharmacy"
  }
},
{
  "type": "node",
  "id": 1956905698,
  "lat": 18.7436894,
  "lon": 98.9949929,
  "tags": {
    "alt_name": "7-11",
    "brand": "7-Eleven",
    "brand:website": "http://www.7eleven.co.th/",
    "brand:wikidata": "Q259340",
    "brand:wikipedia": "th:เซเว่น อีเลฟเว่น",
    "name": "7-Eleven",
    "name:en": "7-Eleven",
    "opening_hours": "24/7",
    "shop": "convenience",
    "source": "survey"
  }
},
{
  "type": "node",
  "id": 2002017233,
  "lat": 18.8006080,
  "lon": 99.0192505,
  "tags": {
    "alt_name": "7-11",
    "brand": "7-Eleven",
    "brand:website": "http://www.7eleven.co.th/",
    "brand:wikidata": "Q259340",
    "brand:wikipedia": "th:เซเว่น อีเลฟเว่น",
    "name": "7-Eleven",
    "name:en": "7-Eleven",
    "opening_hours": "24/7",
    "shop": "convenience"
  }
},
{
  "type": "node",
  "id": 2002017642,
  "lat": 18.8005384,
  "lon": 99.0191037,
  "tags": {
    "amenity": "pharmacy",
    "healthcare": "pharmacy",
    "name:en": "PS Pharmacy"
  }
},
{
  "type": "node",
  "id": 2038072655,
  "lat": 18.8058882,
  "lon": 98.9814504,
  "tags": {
    "alt_name": "7-11",
    "amenity": "atm",
    "brand": "7-Eleven",
    "brand:website": "http://www.7eleven.co.th/",
    "brand:wikidata": "Q259340",
    "brand:wikipedia": "th:เซเว่น อีเลฟเว่น",
    "name": "7-Eleven",
    "name:en": "7-Eleven",
    "opening_hours": "24/7",
    "operator": "7-Eleven",
    "shop": "convenience"
  }
},
{
  "type": "node",
  "id": 2040001657,
  "lat": 18.7860930,
  "lon": 98.9884059,
  "tags": {
    "alt_name": "7-11",
    "brand": "7-Eleven",
    "brand:website": "http://www.7eleven.co.th/",
    "brand:wikidata": "Q259340",
    "brand:wikipedia": "th:เซเว่น อีเลฟเว่น",
    "name": "7-Eleven",
    "name:en": "7-Eleven",
    "opening_hours": "24/7",
    "shop": "convenience",
    "wheelchair": "no"
  }
},
{
  "type": "node",
  "id": 2062356171,
  "lat": 18.7839908,
  "lon": 99.0162904,
  "tags": {
    "alt_name": "7-11",
    "brand": "7-Eleven",
    "brand:website": "http://www.7eleven.co.th/",
    "brand:wikidata": "Q259340",
    "brand:wikipedia": "th:เซเว่น อีเลฟเว่น",
    "name": "7-Eleven",
    "name:en": "7-Eleven",
    "opening_hours": "24/7",
    "shop": "convenience"
  }
},
{
  "type": "node",
  "id": 2090246433,
  "lat": 18.7991334,
  "lon": 98.9902433,
  "tags": {
    "alt_name": "7-11",
    "brand": "7-Eleven",
    "brand:website": "http://www.7eleven.co.th/",
    "brand:wikidata": "Q259340",
    "brand:wikipedia": "th:เซเว่น อีเลฟเว่น",
    "check_date": "2024-10-25",
    "name": "7-Eleven",
    "name:en": "7-Eleven",
    "opening_hours": "24/7",
    "operator": "Seven & I Holdings",
    "shop": "convenience"
  }
},
{
  "type": "node",
  "id": 2099113282,
  "lat": 18.7950411,
  "lon": 98.9708680,
  "tags": {
    "alt_name": "7-11",
    "brand": "7-Eleven",
    "brand:website": "http://www.7eleven.co.th/",
    "brand:wikidata": "Q259340",
    "brand:wikipedia": "th:เซเว่น อีเลฟเว่น",
    "check_date": "2024-02-10",
    "name": "7-Eleven",
    "name:en": "7-Eleven",
    "opening_hours": "24/7",
    "shop": "convenience"
  }
},
{
  "type": "node",
  "id": 2099426586,
  "lat": 18.8001171,
  "lon": 98.9799654,
  "tags": {
    "alt_name": "7-11",
    "brand": "7-Eleven",
    "brand:website": "http://www.7eleven.co.th/",
    "brand:wikidata": "Q259340",
    "brand:wikipedia": "th:เซเว่น อีเลฟเว่น",
    "name": "7-Eleven",
    "name:en": "7-Eleven",
    "opening_hours": "24/7",
    "operator": "Seven & I Holdings",
    "shop": "convenience"
  }
},
{
  "type": "node",
  "id": 2100755383,
  "lat": 18.8047595,
  "lon": 98.9852375,
  "tags": {
    "alt_name": "7-11",
    "brand": "7-Eleven",
    "brand:website": "http://www.7eleven.co.th/",
    "brand:wikidata": "Q259340",
    "brand:wikipedia": "th:เซเว่น อีเลฟเว่น",
    "name": "7-Eleven",
    "name:en": "7-Eleven",
    "opening_hours": "Mo-Su,PH 00:00-00:00",
    "operator": "Seven & I Holdings",
    "shop": "convenience"
  }
},
{
  "type": "node",
  "id": 2113309878,
  "lat": 18.7850261,
  "lon": 98.9941610,
  "tags": {
    "amenity": "pharmacy",
    "drive_through": "no",
    "healthcare": "pharmacy",
    "name": "PharmFriend"
  }
},
{
  "type": "node",
  "id": 2144917963,
  "lat": 18.8113829,
  "lon": 98.9671961,
  "tags": {
    "addr:housenumber": "155/11",
    "addr:postcode": "50300",
    "addr:street": "jedyodyuyen",
    "name": "Laundry Home",
    "shop": "laundry"
  }
},
{
  "type": "node",
  "id": 2199032486,
  "lat": 18.7988676,
  "lon": 98.9744041,
  "tags": {
    "addr:housename": "Nakhornping Condominium",
    "addr:postcode": "50300",
    "addr:street": "Ratchaphruek",
    "name": "Green Store",
    "opening_hours": "Mo-Su 09:00-21:00",
    "shop": "convenience"
  }
},
{
  "type": "node",
  "id": 2292110790,
  "lat": 18.7920267,
  "lon": 98.9933030,
  "tags": {
    "alt_name": "7-11",
    "brand": "7-Eleven",
    "brand:website": "http://www.7eleven.co.th/",
    "brand:wikidata": "Q259340",
    "brand:wikipedia": "th:เซเว่น อีเลฟเว่น",
    "name": "7-Eleven",
    "name:en": "7-Eleven",
    "shop": "convenience"
  }
},
{
  "type": "node",
  "id": 2337768921,
  "lat": 18.7897903,
  "lon": 98.9757343,
  "tags": {
    "alt_name": "7-11",
    "brand": "7-Eleven",
    "brand:website": "http://www.7eleven.co.th/",
    "brand:wikidata": "Q259340",
    "brand:wikipedia": "th:เซเว่น อีเลฟเว่น",
    "name": "7-Eleven",
    "name:en": "7-Eleven",
    "opening_hours": "24/7",
    "shop": "convenience"
  }
},
{
  "type": "node",
  "id": 2371283735,
  "lat": 18.8055165,
  "lon": 98.9939227,
  "tags": {
    "shop": "convenience"
  }
},
{
  "type": "node",
  "id": 2420202261,
  "lat": 18.7980055,
  "lon": 98.9863902,
  "tags": {
    "name": "CTK Mart",
    "shop": "convenience"
  }
},
{
  "type": "node",
  "id": 2420202268,
  "lat": 18.7966954,
  "lon": 98.9864983,
  "tags": {
    "amenity": "pharmacy"
  }
},
{
  "type": "node",
  "id": 2435124433,
  "lat": 18.7916700,
  "lon": 98.9501762,
  "tags": {
    "alt_name": "7-11",
    "brand": "7-Eleven",
    "brand:website": "http://www.7eleven.co.th/",
    "brand:wikidata": "Q259340",
    "brand:wikipedia": "th:เซเว่น อีเลฟเว่น",
    "name": "7-Eleven",
    "name:en": "7-Eleven",
    "shop": "convenience"
  }
},
{
  "type": "node",
  "id": 2441098998,
  "lat": 18.7998472,
  "lon": 99.0186253,
  "tags": {
    "level": "0",
    "name": "Rimping Grocery",
    "opening_hours": "Mo-Su 08:00-21:00",
    "shop": "supermarket"
  }
},
{
  "type": "node",
  "id": 2442339904,
  "lat": 18.7634754,
  "lon": 98.9729643,
  "tags": {
    "brand": "Jiffy",
    "brand:en": "Jiffy",
    "brand:th": "จิฟฟี่",
    "brand:wikidata": "Q16770436",
    "brand:wikipedia": "th:จิฟฟี่",
    "name": "Jiffy",
    "name:en": "Jiffy",
    "name:th": "จิฟฟี่",
    "shop": "convenience"
  }
},
{
  "type": "node",
  "id": 2466325290,
  "lat": 18.7898363,
  "lon": 98.9784463,
  "tags": {
    "alt_name": "7-11",
    "brand": "7-Eleven",
    "brand:website": "http://www.7eleven.co.th/",
    "brand:wikidata": "Q259340",
    "brand:wikipedia": "th:เซเว่น อีเลฟเว่น",
    "name": "7-Eleven",
    "name:en": "7-Eleven",
    "opening_hours": "24/7",
    "shop": "convenience"
  }
},
{
  "type": "node",
  "id": 2509993172,
  "lat": 18.8045529,
  "lon": 98.9787329,
  "tags": {
    "alt_name": "7-11",
    "brand": "7-Eleven",
    "brand:website": "http://www.7eleven.co.th/",
    "brand:wikidata": "Q259340",
    "brand:wikipedia": "th:เซเว่น อีเลฟเว่น",
    "check_date": "2026-04-16",
    "name": "7-Eleven",
    "name:en": "7-Eleven",
    "opening_hours": "24/7",
    "operator": "Seven & I Holdings",
    "shop": "convenience"
  }
},
{
  "type": "node",
  "id": 2517090141,
  "lat": 18.8141597,
  "lon": 99.0109694,
  "tags": {
    "alt_name": "7-11",
    "brand": "7-Eleven",
    "brand:website": "http://www.7eleven.co.th/",
    "brand:wikidata": "Q259340",
    "brand:wikipedia": "th:เซเว่น อีเลฟเว่น",
    "name": "7-Eleven",
    "name:en": "7-Eleven",
    "opening_hours": "24/7",
    "shop": "convenience"
  }
},
{
  "type": "node",
  "id": 2530336690,
  "lat": 18.8028246,
  "lon": 98.9811140,
  "tags": {
    "alt_name": "7-11",
    "brand": "7-Eleven",
    "brand:website": "http://www.7eleven.co.th/",
    "brand:wikidata": "Q259340",
    "brand:wikipedia": "th:เซเว่น อีเลฟเว่น",
    "name": "7-Eleven",
    "name:en": "7-Eleven",
    "opening_hours": "24/7",
    "operator": "Seven & I Holdings",
    "shop": "convenience"
  }
},
{
  "type": "node",
  "id": 2530342678,
  "lat": 18.8029470,
  "lon": 98.9808780,
  "tags": {
    "amenity": "pharmacy",
    "name": "ต้องเภสัช",
    "name:th": "ต้องเภสัช"
  }
},
{
  "type": "node",
  "id": 2530350601,
  "lat": 18.8039637,
  "lon": 98.9812738,
  "tags": {
    "amenity": "pharmacy",
    "name": "เอส.ฟาร์ม่า",
    "name:th": "เอส.ฟาร์ม่า"
  }
},
{
  "type": "node",
  "id": 2530379633,
  "lat": 18.8061849,
  "lon": 98.9812096,
  "tags": {
    "name": "snow white",
    "shop": "laundry"
  }
},
{
  "type": "node",
  "id": 2530393021,
  "lat": 18.8036013,
  "lon": 98.9783189,
  "tags": {
    "brand": "TESCO Lotus Express",
    "name": "TESCO Lotus Express",
    "name:ru": "Теско Лотус Экспресс",
    "opening_hours": "24/7",
    "shop": "convenience"
  }
},
{
  "type": "node",
  "id": 2530393023,
  "lat": 18.8035972,
  "lon": 98.9785726,
  "tags": {
    "amenity": "pharmacy"
  }
},
{
  "type": "node",
  "id": 2530393024,
  "lat": 18.8039199,
  "lon": 98.9783794,
  "tags": {
    "shop": "convenience"
  }
},
{
  "type": "node",
  "id": 2530393026,
  "lat": 18.8055848,
  "lon": 98.9787766,
  "tags": {
    "shop": "laundry"
  }
},
{
  "type": "node",
  "id": 2530393027,
  "lat": 18.8065908,
  "lon": 98.9787417,
  "tags": {
    "shop": "convenience"
  }
},
{
  "type": "node",
  "id": 2530413333,
  "lat": 18.8036538,
  "lon": 98.9741317,
  "tags": {
    "amenity": "pharmacy",
    "name": "คลังปันยา",
    "name:en": "Khlang Pan Ya",
    "name:th": "คลังปันยา"
  }
},
{
  "type": "node",
  "id": 2530413336,
  "lat": 18.8038056,
  "lon": 98.9729918,
  "tags": {
    "alt_name": "7-11",
    "brand": "7-Eleven",
    "brand:website": "http://www.7eleven.co.th/",
    "brand:wikidata": "Q259340",
    "brand:wikipedia": "th:เซเว่น อีเลฟเว่น",
    "name": "7-Eleven",
    "name:en": "7-Eleven",
    "opening_hours": "24/7",
    "operator": "Seven & I Holdings",
    "shop": "convenience"
  }
},
{
  "type": "node",
  "id": 2530435324,
  "lat": 18.8023883,
  "lon": 98.9784296,
  "tags": {
    "amenity": "pharmacy",
    "name": "ฟาร์ม่าคลับ",
    "name:en": "Pharma Club",
    "name:th": "ฟาร์ม่าคลับ",
    "opening_hours": "Mo-Su 10:00-22:00"
  }
},
{
  "type": "node",
  "id": 2530435330,
  "lat": 18.8020440,
  "lon": 98.9780697,
  "tags": {
    "shop": "convenience"
  }
},
{
  "type": "node",
  "id": 2530435334,
  "lat": 18.8028075,
  "lon": 98.9793478,
  "tags": {
    "shop": "convenience"
  }
},
{
  "type": "node",
  "id": 2530435337,
  "lat": 18.8023985,
  "lon": 98.9781726,
  "tags": {
    "alt_name": "7-11",
    "brand": "7-Eleven",
    "brand:website": "http://www.7eleven.co.th/",
    "brand:wikidata": "Q259340",
    "brand:wikipedia": "th:เซเว่น อีเลฟเว่น",
    "name": "7-Eleven",
    "name:en": "7-Eleven",
    "opening_hours": "24/7",
    "operator": "Seven & I Holdings",
    "shop": "convenience"
  }
},
{
  "type": "node",
  "id": 2567784386,
  "lat": 18.7886850,
  "lon": 98.9826574,
  "tags": {
    "amenity": "pharmacy",
    "name": "Phuping Pharmacy",
    "name:en": "Phuping Pharmacy",
    "name:ja": "プーピン薬局"
  }
},
{
  "type": "node",
  "id": 2567785171,
  "lat": 18.7884387,
  "lon": 98.9829119,
  "tags": {
    "shop": "convenience",
    "wheelchair": "no"
  }
},
{
  "type": "node",
  "id": 2580478784,
  "lat": 18.8051623,
  "lon": 98.9934434,
  "tags": {
    "alt_name": "7-11",
    "brand": "7-Eleven",
    "brand:website": "http://www.7eleven.co.th/",
    "brand:wikidata": "Q259340",
    "brand:wikipedia": "th:เซเว่น อีเลฟเว่น",
    "name": "7-Eleven",
    "name:en": "7-Eleven",
    "opening_hours": "24/7",
    "shop": "convenience"
  }
},
{
  "type": "node",
  "id": 2595902501,
  "lat": 18.7894574,
  "lon": 99.0253813,
  "tags": {
    "amenity": "pharmacy",
    "name": "Super Drug",
    "opening_hours": "Mo-Su 09:00-00:00"
  }
},
{
  "type": "node",
  "id": 2597946647,
  "lat": 18.7842018,
  "lon": 98.9970688,
  "tags": {
    "shop": "convenience"
  }
},
{
  "type": "node",
  "id": 2609583870,
  "lat": 18.8084617,
  "lon": 98.9631792,
  "tags": {
    "name": "Welcome Mart",
    "shop": "convenience"
  }
},
{
  "type": "node",
  "id": 2609696940,
  "lat": 18.7640112,
  "lon": 99.0010961,
  "tags": {
    "amenity": "pharmacy",
    "name": "ช้างคลานเภสัช",
    "name:th": "ช้างคลานเภสัช"
  }
},
{
  "type": "node",
  "id": 2609696943,
  "lat": 18.7726217,
  "lon": 98.9989471,
  "tags": {
    "alt_name": "7-11",
    "brand": "7-Eleven",
    "brand:website": "http://www.7eleven.co.th/",
    "brand:wikidata": "Q259340",
    "brand:wikipedia": "th:เซเว่น อีเลฟเว่น",
    "name": "7-Eleven",
    "name:en": "7-Eleven",
    "opening_hours": "24/7",
    "shop": "convenience"
  }
},
{
  "type": "node",
  "id": 2609696944,
  "lat": 18.7815478,
  "lon": 98.9870618,
  "tags": {
    "alt_name": "7-11",
    "brand": "7-Eleven",
    "brand:website": "http://www.7eleven.co.th/",
    "brand:wikidata": "Q259340",
    "brand:wikipedia": "th:เซเว่น อีเลฟเว่น",
    "name:en": "7-Eleven",
    "opening_hours": "24/7",
    "shop": "convenience"
  }
},
{
  "type": "node",
  "id": 2609696945,
  "lat": 18.7815367,
  "lon": 98.9879254,
  "tags": {
    "alt_name": "7-11",
    "brand": "7-Eleven",
    "brand:website": "http://www.7eleven.co.th/",
    "brand:wikidata": "Q259340",
    "brand:wikipedia": "th:เซเว่น อีเลฟเว่น",
    "check_date": "2025-12-24",
    "name": "7-Eleven",
    "name:en": "7-Eleven",
    "opening_hours": "24/7",
    "shop": "convenience"
  }
},
{
  "type": "node",
  "id": 2609696946,
  "lat": 18.7973392,
  "lon": 98.9757115,
  "tags": {
    "alt_name": "7-11",
    "brand": "7-Eleven",
    "brand:website": "http://www.7eleven.co.th/",
    "brand:wikidata": "Q259340",
    "brand:wikipedia": "th:เซเว่น อีเลฟเว่น",
    "check_date": "2024-11-04",
    "name": "7-Eleven",
    "name:en": "7-Eleven",
    "opening_hours": "24/7",
    "operator": "Seven & I Holdings",
    "shop": "convenience"
  }
},
{
  "type": "node",
  "id": 2610123177,
  "lat": 18.7830309,
  "lon": 98.9999966,
  "tags": {
    "addr:housenumber": "144",
    "addr:street": "ถนนช้างคลาน",
    "amenity": "pharmacy",
    "name": "The Pharma C"
  }
},
{
  "type": "node",
  "id": 2610123180,
  "lat": 18.7691746,
  "lon": 98.9986585,
  "tags": {
    "alt_name": "7-11",
    "brand": "7-Eleven",
    "brand:website": "http://www.7eleven.co.th/",
    "brand:wikidata": "Q259340",
    "brand:wikipedia": "th:เซเว่น อีเลฟเว่น",
    "name": "7-Eleven",
    "name:en": "7-Eleven",
    "opening_hours": "24/7",
    "shop": "convenience"
  }
},
{
  "type": "node",
  "id": 2610123183,
  "lat": 18.7795977,
  "lon": 98.9993941,
  "tags": {
    "alt_name": "7-11",
    "brand": "7-Eleven",
    "brand:website": "http://www.7eleven.co.th/",
    "brand:wikidata": "Q259340",
    "brand:wikipedia": "th:เซเว่น อีเลฟเว่น",
    "name": "7-Eleven",
    "name:en": "7-Eleven",
    "opening_hours": "24/7",
    "shop": "convenience"
  }
},
{
  "type": "node",
  "id": 2616903185,
  "lat": 18.7785436,
  "lon": 98.9897779,
  "tags": {
    "shop": "laundry"
  }
},
{
  "type": "node",
  "id": 2621935417,
  "lat": 18.7766999,
  "lon": 98.9930298,
  "tags": {
    "shop": "laundry"
  }
},
{
  "type": "node",
  "id": 2632210804,
  "lat": 18.7917578,
  "lon": 98.9703528,
  "tags": {
    "alt_name": "7-11",
    "brand": "7-Eleven",
    "brand:website": "http://www.7eleven.co.th/",
    "brand:wikidata": "Q259340",
    "brand:wikipedia": "th:เซเว่น อีเลฟเว่น",
    "name": "7-Eleven",
    "name:en": "7-Eleven",
    "shop": "convenience",
    "source": "http://www.mapillary.com/map/im/b6D5k0uD2p04ooB00i01-w"
  }
},
{
  "type": "node",
  "id": 2638262573,
  "lat": 18.7899184,
  "lon": 98.9784388,
  "tags": {
    "addr:housenumber": "29/7",
    "addr:street": "ถนนอารักษ์",
    "amenity": "pharmacy",
    "name": "คณายา",
    "name:en": "Drug Store",
    "name:th": "คณายา"
  }
},
{
  "type": "node",
  "id": 2638612443,
  "lat": 18.7993703,
  "lon": 98.9610408,
  "tags": {
    "amenity": "pharmacy",
    "name": "ร้านยา เอพลัส",
    "name:en": "A+ Pharmacy",
    "name:th": "ร้านยา เอพลัส",
    "opening_hours": "24/7"
  }
},
{
  "type": "node",
  "id": 2638649069,
  "lat": 18.7894653,
  "lon": 98.9655461,
  "tags": {
    "alt_name": "7-11",
    "brand": "7-Eleven",
    "brand:website": "http://www.7eleven.co.th/",
    "brand:wikidata": "Q259340",
    "brand:wikipedia": "th:เซเว่น อีเลฟเว่น",
    "name": "7-Eleven",
    "name:en": "7-Eleven",
    "opening_hours": "24/7",
    "shop": "convenience"
  }
},
{
  "type": "node",
  "id": 2638687780,
  "lat": 18.7889120,
  "lon": 98.9727890,
  "tags": {
    "alt_name": "7-11",
    "brand": "7-Eleven",
    "brand:website": "http://www.7eleven.co.th/",
    "brand:wikidata": "Q259340",
    "brand:wikipedia": "th:เซเว่น อีเลฟเว่น",
    "name": "7-Eleven",
    "name:en": "7-Eleven",
    "opening_hours": "24/7",
    "shop": "convenience"
  }
},
{
  "type": "node",
  "id": 2638687785,
  "lat": 18.7890422,
  "lon": 98.9698449,
  "tags": {
    "alt_name": "7-11",
    "brand": "7-Eleven",
    "brand:website": "http://www.7eleven.co.th/",
    "brand:wikidata": "Q259340",
    "brand:wikipedia": "th:เซเว่น อีเลฟเว่น",
    "name": "7-Eleven",
    "name:en": "7-Eleven",
    "opening_hours": "24/7",
    "shop": "convenience"
  }
},
{
  "type": "node",
  "id": 2642822045,
  "lat": 18.7955209,
  "lon": 98.9971590,
  "tags": {
    "cuisine": "indian",
    "origin": "indian",
    "shop": "convenience"
  }
},
{
  "type": "node",
  "id": 2648382126,
  "lat": 18.7838149,
  "lon": 99.0053234,
  "tags": {
    "alt_name": "7-11",
    "brand": "7-Eleven",
    "brand:website": "http://www.7eleven.co.th/",
    "brand:wikidata": "Q259340",
    "brand:wikipedia": "th:เซเว่น อีเลฟเว่น",
    "check_date": "2025-05-06",
    "name": "7-Eleven",
    "name:en": "7-Eleven",
    "opening_hours": "24/7",
    "shop": "convenience"
  }
},
{
  "type": "node",
  "id": 2648578466,
  "lat": 18.7743954,
  "lon": 99.0011201,
  "tags": {
    "brand": "Fresh Mart",
    "name": "Fresh Mart",
    "opening_hours": "24/7",
    "shop": "convenience"
  }
},
{
  "type": "node",
  "id": 2649636470,
  "lat": 18.7926454,
  "lon": 98.9976741,
  "tags": {
    "name": "Lotus's",
    "opening_hours": "24/7",
    "shop": "convenience"
  }
},
{
  "type": "node",
  "id": 2649636478,
  "lat": 18.7963582,
  "lon": 98.9990795,
  "tags": {
    "alt_name": "7-11",
    "brand": "7-Eleven",
    "brand:website": "http://www.7eleven.co.th/",
    "brand:wikidata": "Q259340",
    "brand:wikipedia": "th:เซเว่น อีเลฟเว่น",
    "name": "7-Eleven",
    "name:en": "7-Eleven",
    "opening_hours": "24/7",
    "shop": "convenience"
  }
},
{
  "type": "node",
  "id": 2650671695,
  "lat": 18.7625526,
  "lon": 98.9442774,
  "tags": {
    "shop": "convenience"
  }
},
{
  "type": "node",
  "id": 2650709902,
  "lat": 18.7930226,
  "lon": 98.9538726,
  "tags": {
    "name": "สานใจ",
    "shop": "convenience"
  }
},
{
  "type": "node",
  "id": 2650752229,
  "lat": 18.7917030,
  "lon": 98.9581363,
  "tags": {
    "alt_name": "7-11",
    "brand": "7-Eleven",
    "brand:website": "http://www.7eleven.co.th/",
    "brand:wikidata": "Q259340",
    "brand:wikipedia": "th:เซเว่น อีเลฟเว่น",
    "name": "7-Eleven",
    "name:en": "7-Eleven",
    "opening_hours": "24/7",
    "shop": "convenience",
    "wheelchair": "no"
  }
},
{
  "type": "node",
  "id": 2650769479,
  "lat": 18.7950980,
  "lon": 98.9708510,
  "tags": {
    "amenity": "pharmacy",
    "name": "สุขใจเภสัช"
  }
},
{
  "type": "node",
  "id": 2650782949,
  "lat": 18.8012446,
  "lon": 99.0008474,
  "tags": {
    "alt_name": "7-11",
    "brand": "7-Eleven",
    "brand:website": "http://www.7eleven.co.th/",
    "brand:wikidata": "Q259340",
    "brand:wikipedia": "th:เซเว่น อีเลฟเว่น",
    "check_date": "2024-10-25",
    "name": "7-Eleven",
    "name:en": "7-Eleven",
    "opening_hours": "24/7",
    "shop": "convenience"
  }
},
{
  "type": "node",
  "id": 2650790830,
  "lat": 18.8008421,
  "lon": 99.0136692,
  "tags": {
    "amenity": "pharmacy",
    "brand": "Fascino",
    "healthcare": "pharmacy",
    "name": "ฟาสซิโน",
    "name:en": "Phasino",
    "name:th": "ฟาสซิโน",
    "opening_hours": "Mo-Su 08:00-21:00",
    "operator": "Fascino",
    "phone": "+66 53-261-150-2",
    "website": "https://www.fascino.co.th"
  }
},
{
  "type": "node",
  "id": 2651585084,
  "lat": 18.7941006,
  "lon": 98.9917771,
  "tags": {
    "shop": "laundry"
  }
},
{
  "type": "node",
  "id": 2652777924,
  "lat": 18.7847121,
  "lon": 98.9934548,
  "tags": {
    "amenity": "pharmacy",
    "name": "Goodwill Pharmacy"
  }
},
{
  "type": "node",
  "id": 2652877326,
  "lat": 18.7782696,
  "lon": 98.9930575,
  "tags": {
    "shop": "laundry"
  }
},
{
  "type": "node",
  "id": 2652920115,
  "lat": 18.7795714,
  "lon": 98.9914235,
  "tags": {
    "shop": "convenience"
  }
},
{
  "type": "node",
  "id": 2652929135,
  "lat": 18.7797664,
  "lon": 98.9919710,
  "tags": {
    "shop": "laundry"
  }
},
{
  "type": "node",
  "id": 2655166227,
  "lat": 18.7844511,
  "lon": 98.9983330,
  "tags": {
    "amenity": "pharmacy",
    "name": "PharmaShop"
  }
},
{
  "type": "node",
  "id": 2655201559,
  "lat": 18.7841298,
  "lon": 98.9990660,
  "tags": {
    "alt_name": "7-11",
    "brand": "7-Eleven",
    "brand:website": "http://www.7eleven.co.th/",
    "brand:wikidata": "Q259340",
    "brand:wikipedia": "th:เซเว่น อีเลฟเว่น",
    "check_date": "2024-10-31",
    "name": "7-Eleven",
    "name:en": "7-Eleven",
    "opening_hours": "24/7",
    "shop": "convenience"
  }
},
{
  "type": "node",
  "id": 2655246245,
  "lat": 18.7912654,
  "lon": 98.9965231,
  "tags": {
    "shop": "laundry"
  }
},
{
  "type": "node",
  "id": 2655275434,
  "lat": 18.7909530,
  "lon": 98.9983398,
  "tags": {
    "name": "วิมุตสังฆทาน",
    "shop": "supermarket"
  }
},
{
  "type": "node",
  "id": 2656881137,
  "lat": 18.7749079,
  "lon": 98.9894142,
  "tags": {
    "brand": "CP Fresh Mart",
    "name": "CP Fresh Mart",
    "shop": "convenience"
  }
},
{
  "type": "node",
  "id": 2660452152,
  "lat": 18.8004160,
  "lon": 98.9600437,
  "tags": {
    "alt_name": "7-11",
    "brand": "7-Eleven",
    "brand:website": "http://www.7eleven.co.th/",
    "brand:wikidata": "Q259340",
    "brand:wikipedia": "th:เซเว่น อีเลฟเว่น",
    "name": "7-Eleven",
    "name:en": "7-Eleven",
    "opening_hours": "24/7",
    "operator": "Seven & I Holdings",
    "shop": "convenience"
  }
},
{
  "type": "node",
  "id": 2660469647,
  "lat": 18.8047806,
  "lon": 98.9692390,
  "tags": {
    "alt_name": "7-11",
    "brand": "7-Eleven",
    "brand:website": "http://www.7eleven.co.th/",
    "brand:wikidata": "Q259340",
    "brand:wikipedia": "th:เซเว่น อีเลฟเว่น",
    "name": "7-Eleven",
    "name:en": "7-Eleven",
    "opening_hours": "24/7",
    "operator": "Seven & I Holdings",
    "shop": "convenience"
  }
},
{
  "type": "node",
  "id": 2660472373,
  "lat": 18.8105251,
  "lon": 99.0024121,
  "tags": {
    "alt_name": "7-11",
    "brand": "7-Eleven",
    "brand:website": "http://www.7eleven.co.th/",
    "brand:wikidata": "Q259340",
    "brand:wikipedia": "th:เซเว่น อีเลฟเว่น",
    "name": "7-Eleven",
    "name:en": "7-Eleven",
    "opening_hours": "24/7",
    "shop": "convenience"
  }
},
{
  "type": "node",
  "id": 2661221810,
  "lat": 18.7795606,
  "lon": 98.9894567,
  "tags": {
    "amenity": "pharmacy",
    "name": "หจก.สยามชัยเภสัช"
  }
},
{
  "type": "node",
  "id": 2661432120,
  "lat": 18.7634320,
  "lon": 99.0058740,
  "tags": {
    "alt_name": "7-11",
    "brand": "7-Eleven",
    "brand:website": "http://www.7eleven.co.th/",
    "brand:wikidata": "Q259340",
    "brand:wikipedia": "th:เซเว่น อีเลฟเว่น",
    "name": "7-Eleven",
    "name:en": "7-Eleven",
    "opening_hours": "24/7",
    "shop": "convenience"
  }
},
{
  "type": "node",
  "id": 2661443153,
  "lat": 18.7699246,
  "lon": 99.0060668,
  "tags": {
    "amenity": "pharmacy",
    "name": "ภีชญาเภสัช",
    "name:en": "Phi Chaya Pharmacist",
    "name:th": "ภีชญาเภสัช"
  }
},
{
  "type": "node",
  "id": 2670852980,
  "lat": 18.7702952,
  "lon": 98.9455536,
  "tags": {
    "shop": "convenience"
  }
},
{
  "type": "node",
  "id": 2674745558,
  "lat": 18.8084809,
  "lon": 98.9745186,
  "tags": {
    "name": "Tigermart",
    "name:en": "Tigermart",
    "shop": "convenience"
  }
},
{
  "type": "node",
  "id": 2682488387,
  "lat": 18.7961492,
  "lon": 99.0165808,
  "tags": {
    "alt_name": "7-11",
    "brand": "7-Eleven",
    "brand:website": "http://www.7eleven.co.th/",
    "brand:wikidata": "Q259340",
    "brand:wikipedia": "th:เซเว่น อีเลฟเว่น",
    "name": "7-Eleven",
    "name:en": "7-Eleven",
    "opening_hours": "24/7",
    "shop": "convenience",
    "wheelchair": "no"
  }
},
{
  "type": "node",
  "id": 2682539780,
  "lat": 18.8012065,
  "lon": 99.0098649,
  "tags": {
    "alt_name": "7-11",
    "brand": "7-Eleven",
    "brand:website": "http://www.7eleven.co.th/",
    "brand:wikidata": "Q259340",
    "brand:wikipedia": "th:เซเว่น อีเลฟเว่น",
    "name": "7-Eleven",
    "name:en": "7-Eleven",
    "opening_hours": "24/7",
    "shop": "convenience"
  }
},
{
  "type": "node",
  "id": 2685045433,
  "lat": 18.7961758,
  "lon": 98.9660426,
  "tags": {
    "amenity": "pharmacy",
    "healthcare": "pharmacy",
    "name": "99 Pharmacy"
  }
},
{
  "type": "node",
  "id": 2696290620,
  "lat": 18.7977347,
  "lon": 98.9710428,
  "tags": {
    "alt_name": "7-11",
    "brand": "7-Eleven",
    "brand:website": "http://www.7eleven.co.th/",
    "brand:wikidata": "Q259340",
    "brand:wikipedia": "th:เซเว่น อีเลฟเว่น",
    "check_date": "2026-02-08",
    "level": "0",
    "name": "7-Eleven",
    "name:en": "7-Eleven",
    "opening_hours": "24/7",
    "operator": "Seven & I Holdings",
    "payment:cash": "yes",
    "payment:credit_cards": "yes",
    "payment:debit_cards": "yes",
    "shop": "convenience",
    "wheelchair": "no"
  }
},
{
  "type": "node",
  "id": 2799031404,
  "lat": 18.8251936,
  "lon": 98.9797174,
  "tags": {
    "alt_name": "7-11",
    "brand": "7-Eleven",
    "brand:website": "http://www.7eleven.co.th/",
    "brand:wikidata": "Q259340",
    "brand:wikipedia": "th:เซเว่น อีเลฟเว่น",
    "name": "7-Eleven",
    "name:en": "7-Eleven",
    "shop": "convenience"
  }
},
{
  "type": "node",
  "id": 2865805502,
  "lat": 18.8069430,
  "lon": 99.0177055,
  "tags": {
    "amenity": "pharmacy",
    "level": "4",
    "name": "First Drug"
  }
},
{
  "type": "node",
  "id": 2865838601,
  "lat": 18.8077138,
  "lon": 99.0185752,
  "tags": {
    "amenity": "clinic",
    "level": "4",
    "name": "F. B. Medical Clinic"
  }
},
{
  "type": "node",
  "id": 2865838701,
  "lat": 18.8076484,
  "lon": 99.0185615,
  "tags": {
    "amenity": "clinic",
    "level": "4",
    "name:en": "Rajdhevee Clinic"
  }
},
{
  "type": "node",
  "id": 2865838801,
  "lat": 18.8075844,
  "lon": 99.0185556,
  "tags": {
    "amenity": "clinic",
    "level": "4",
    "name:en": "Nitipon Clinic"
  }
},
{
  "type": "node",
  "id": 2865838901,
  "lat": 18.8074571,
  "lon": 99.0185424,
  "tags": {
    "amenity": "clinic",
    "level": "4",
    "name:en": "Romrawin Clinic"
  }
},
{
  "type": "node",
  "id": 2982575644,
  "lat": 18.7571555,
  "lon": 98.9947547,
  "tags": {
    "alt_name": "7-11",
    "brand": "7-Eleven",
    "brand:website": "http://www.7eleven.co.th/",
    "brand:wikidata": "Q259340",
    "brand:wikipedia": "th:เซเว่น อีเลฟเว่น",
    "name": "7-Eleven",
    "name:en": "7-Eleven",
    "shop": "convenience"
  }
},
{
  "type": "node",
  "id": 2984533333,
  "lat": 18.7851232,
  "lon": 99.0098890,
  "tags": {
    "alt_name": "7-11",
    "brand": "7-Eleven",
    "brand:website": "http://www.7eleven.co.th/",
    "brand:wikidata": "Q259340",
    "brand:wikipedia": "th:เซเว่น อีเลฟเว่น",
    "name": "7-Eleven",
    "name:en": "7-Eleven",
    "shop": "convenience"
  }
},
{
  "type": "node",
  "id": 3011794833,
  "lat": 18.8010397,
  "lon": 99.0170252,
  "tags": {
    "shop": "convenience"
  }
},
{
  "type": "node",
  "id": 3091942581,
  "lat": 18.7958818,
  "lon": 98.9847932,
  "tags": {
    "brand": "Lotus's go fresh",
    "name": "Lotus's go fresh",
    "name:en": "Lotus's go fresh",
    "name:ru": "Теско Лотус Экспресс",
    "opening_hours": "24/7",
    "shop": "convenience"
  }
},
{
  "type": "node",
  "id": 3123303158,
  "lat": 18.8024078,
  "lon": 98.9667386,
  "tags": {
    "addr:floor": "B1",
    "alt_name": "Rim Ping Supermarket",
    "check_date": "2025-02-17",
    "level": "-1",
    "name": "Rimping Supermarket",
    "name:en": "Rimping Supermarket",
    "name:th": "ริมปิงซูเปอร์มาร์เก็ต",
    "opening_hours": "10:00-22:00",
    "operator": "Rimping",
    "payment:cash": "yes",
    "payment:credit_cards": "yes",
    "payment:debit_cards": "yes",
    "shop": "supermarket",
    "website": "https://www.rimping.com/",
    "wheelchair": "yes"
  }
},
{
  "type": "node",
  "id": 3144976447,
  "lat": 18.7929703,
  "lon": 98.9787318,
  "tags": {
    "shop": "laundry"
  }
},
{
  "type": "node",
  "id": 3152484461,
  "lat": 18.7994550,
  "lon": 99.0169387,
  "tags": {
    "alt_name": "7-11",
    "brand": "7-Eleven",
    "brand:website": "http://www.7eleven.co.th/",
    "brand:wikidata": "Q259340",
    "brand:wikipedia": "th:เซเว่น อีเลฟเว่น",
    "name": "7-Eleven",
    "name:en": "7-Eleven",
    "shop": "convenience"
  }
},
{
  "type": "node",
  "id": 3172109427,
  "lat": 18.7967058,
  "lon": 98.9862742,
  "tags": {
    "description": "self service laundry",
    "shop": "laundry"
  }
},
{
  "type": "node",
  "id": 3182206735,
  "lat": 18.7983731,
  "lon": 98.9547439,
  "tags": {
    "name": "ตู้ซักผ้าหยอดเหรียญ",
    "shop": "laundry"
  }
},
{
  "type": "node",
  "id": 3182208501,
  "lat": 18.7986176,
  "lon": 98.9556074,
  "tags": {
    "name": "ตู้ซักผ้าหยอดเหรียญ",
    "shop": "laundry"
  }
},
{
  "type": "node",
  "id": 3182208507,
  "lat": 18.7980352,
  "lon": 98.9556803,
  "tags": {
    "name": "ตู้ซักผ้าหยอดเหรียญ",
    "shop": "laundry"
  }
},
{
  "type": "node",
  "id": 3182208525,
  "lat": 18.7998769,
  "lon": 98.9536620,
  "tags": {
    "name": "ตู้ซักผ้าหยอดเหรียญ",
    "shop": "laundry"
  }
},
{
  "type": "node",
  "id": 3182208526,
  "lat": 18.7975068,
  "lon": 98.9520369,
  "tags": {
    "laundry_service": "no",
    "name": "ตู้ซักผ้าหยอดเหรียญ",
    "self_service": "yes",
    "shop": "laundry"
  }
},
{
  "type": "node",
  "id": 3182208856,
  "lat": 18.7996362,
  "lon": 98.9501805,
  "tags": {
    "name": "ตู้ซักผ้าหยอดเหรียญ",
    "shop": "laundry"
  }
},
{
  "type": "node",
  "id": 3182209103,
  "lat": 18.7976844,
  "lon": 98.9519803,
  "tags": {
    "laundry_service": "no",
    "name": "ตู้ซักผ้าหยอดเหรียญ",
    "opening_hours": "24/7",
    "self_service": "yes",
    "shop": "laundry"
  }
},
{
  "type": "node",
  "id": 3184683033,
  "lat": 18.8110973,
  "lon": 98.9932462,
  "tags": {
    "alt_name": "7-11",
    "brand": "7-Eleven",
    "brand:website": "http://www.7eleven.co.th/",
    "brand:wikidata": "Q259340",
    "brand:wikipedia": "th:เซเว่น อีเลฟเว่น",
    "name": "7-Eleven",
    "name:en": "7-Eleven",
    "opening_hours": "24/7",
    "shop": "convenience"
  }
},
{
  "type": "node",
  "id": 3205899955,
  "lat": 18.7698544,
  "lon": 98.9500687,
  "tags": {
    "brand": "Lotus's go fresh",
    "name": "Lotus's go fresh",
    "opening_hours": "24/7",
    "shop": "convenience"
  }
},
{
  "type": "node",
  "id": 3207146913,
  "lat": 18.8183672,
  "lon": 98.9738119,
  "tags": {
    "amenity": "pharmacy",
    "source": "GPS"
  }
},
{
  "type": "node",
  "id": 3211600579,
  "lat": 18.7942579,
  "lon": 98.9922985,
  "tags": {
    "shop": "laundry"
  }
},
{
  "type": "node",
  "id": 3283572386,
  "lat": 18.7990510,
  "lon": 98.9811302,
  "tags": {
    "shop": "convenience"
  }
},
{
  "type": "node",
  "id": 3283612048,
  "lat": 18.8001868,
  "lon": 98.9800129,
  "tags": {
    "amenity": "pharmacy",
    "name": "อุ่นใจเภสัช",
    "name:en": "Unchai Pharmacy",
    "name:th": "อุ่นใจเภสัช"
  }
},
{
  "type": "node",
  "id": 3283647546,
  "lat": 18.7987148,
  "lon": 98.9797151,
  "tags": {
    "opening_hours": "Mo-Su 08:00-19:00",
    "shop": "laundry"
  }
},
{
  "type": "node",
  "id": 3283879619,
  "lat": 18.8027070,
  "lon": 98.9784539,
  "tags": {
    "amenity": "pharmacy",
    "check_date": "2025-01-13",
    "name": "Wellcare"
  }
},
{
  "type": "node",
  "id": 3283898388,
  "lat": 18.8034336,
  "lon": 98.9783298,
  "tags": {
    "amenity": "pharmacy",
    "name": "กนกศักดิ์เภสัช",
    "name:en": "Kanok Sak",
    "name:th": "กนกศักดิ์เภสัช",
    "opening_hours": "Mo-Su 17:00-22:00; Sa 08:00-22:00"
  }
},
{
  "type": "node",
  "id": 3285646158,
  "lat": 18.8039980,
  "lon": 98.9847332,
  "tags": {
    "amenity": "pharmacy",
    "name": "ธานินเภสัช",
    "name:en": "Thanin",
    "name:th": "ธานินเภสัช"
  }
},
{
  "type": "node",
  "id": 3285647463,
  "lat": 18.8039983,
  "lon": 98.9847999,
  "tags": {
    "amenity": "pharmacy"
  }
},
{
  "type": "node",
  "id": 3285652272,
  "lat": 18.8041770,
  "lon": 98.9836896,
  "tags": {
    "amenity": "pharmacy",
    "name": "สมศักดิ์เภสัช 3",
    "name:en": "Som Sak 3",
    "name:th": "สมศักดิ์เภสัช 3"
  }
},
{
  "type": "node",
  "id": 3285654758,
  "lat": 18.8041348,
  "lon": 98.9833815,
  "tags": {
    "amenity": "pharmacy",
    "name": "ว.เภสัชกร",
    "name:th": "ว.เภสัชกร"
  }
},
{
  "type": "node",
  "id": 3287356497,
  "lat": 18.8021268,
  "lon": 98.9670372,
  "tags": {
    "amenity": "pharmacy",
    "healthcare": "pharmacy",
    "level": "-1",
    "name": "Pharmacare Plus",
    "wheelchair": "yes"
  }
},
{
  "type": "node",
  "id": 3289826715,
  "lat": 18.8004872,
  "lon": 98.9858671,
  "tags": {
    "addr:housenumber": "159/4",
    "addr:street": "ถนนช้างเผือก ซอย 4",
    "amenity": "pharmacy",
    "name": "รุ่งเรืองฟาร์มาซี",
    "name:en": "Rungrueang",
    "name:th": "รุ่งเรืองฟาร์มาซี"
  }
},
{
  "type": "node",
  "id": 3289860355,
  "lat": 18.8007671,
  "lon": 98.9858097,
  "tags": {
    "addr:housenumber": "159/10",
    "addr:street": "ถนน ช้างเผือก",
    "amenity": "pharmacy",
    "name": "ภิญโญเภสัช",
    "name:en": "Phinyo",
    "name:th": "ภิญโญเภสัช"
  }
},
{
  "type": "node",
  "id": 3289863506,
  "lat": 18.8008276,
  "lon": 98.9858009,
  "tags": {
    "amenity": "pharmacy",
    "name": "วโรภัณฑ์",
    "name:en": "Waro Phan",
    "name:th": "วโรภัณฑ์"
  }
},
{
  "type": "node",
  "id": 3297927098,
  "lat": 18.7997578,
  "lon": 98.9974005,
  "tags": {
    "alt_name": "7-11",
    "brand": "7-Eleven",
    "brand:website": "http://www.7eleven.co.th/",
    "brand:wikidata": "Q259340",
    "brand:wikipedia": "th:เซเว่น อีเลฟเว่น",
    "name": "7-Eleven",
    "name:en": "7-Eleven",
    "opening_hours": "24/7",
    "shop": "convenience"
  }
},
{
  "type": "node",
  "id": 3298008473,
  "lat": 18.8051699,
  "lon": 98.9811700,
  "tags": {
    "amenity": "pharmacy",
    "name": "ฟาร์ม่า ไทม์",
    "name:en": "Pharma Thai",
    "name:th": "ฟาร์ม่า ไทม์"
  }
},
{
  "type": "node",
  "id": 3298048827,
  "lat": 18.8050221,
  "lon": 98.9839793,
  "tags": {
    "name": "ฮองเย",
    "name:en": "Hong Ye",
    "name:th": "ฮองเย",
    "shop": "laundry"
  }
},
{
  "type": "node",
  "id": 3298064153,
  "lat": 18.8047186,
  "lon": 98.9848303,
  "tags": {
    "amenity": "pharmacy",
    "name": "Citrus Pharmacy",
    "name:en": "Citrus Pharmacy",
    "name:th": "ซีตรัส ฟาร์มาซี",
    "opening_hours": "Mo-Su 10:00-20:00"
  }
},
{
  "type": "node",
  "id": 3298760886,
  "lat": 18.7694685,
  "lon": 98.9985614,
  "tags": {
    "amenity": "pharmacy",
    "name": "อีซี่ดรัก",
    "name:en": "Easy Drug",
    "name:th": "อีซี่ดรัก"
  }
},
{
  "type": "node",
  "id": 3298800096,
  "lat": 18.7920792,
  "lon": 98.9933199,
  "tags": {
    "addr:housenumber": "185/1-185/2",
    "amenity": "pharmacy",
    "name": "เดชาเวชภัณฑ์",
    "name:th": "เดชาเวชภัณฑ์"
  }
},
{
  "type": "node",
  "id": 3298800097,
  "lat": 18.7812672,
  "lon": 98.9964438,
  "tags": {
    "alt_name": "7-11",
    "brand": "7-Eleven",
    "brand:website": "http://www.7eleven.co.th/",
    "brand:wikidata": "Q259340",
    "brand:wikipedia": "th:เซเว่น อีเลฟเว่น",
    "name": "7-Eleven",
    "name:en": "7-Eleven",
    "opening_hours": "24/7",
    "shop": "convenience"
  }
},
{
  "type": "node",
  "id": 3298800098,
  "lat": 18.7951913,
  "lon": 98.9883291,
  "tags": {
    "alt_name": "7-11",
    "brand": "7-Eleven",
    "brand:website": "http://www.7eleven.co.th/",
    "brand:wikidata": "Q259340",
    "brand:wikipedia": "th:เซเว่น อีเลฟเว่น",
    "name": "7-Eleven",
    "name:en": "7-Eleven",
    "opening_hours": "24/7",
    "operator": "Seven & I Holdings",
    "shop": "convenience"
  }
},
{
  "type": "node",
  "id": 3298818262,
  "lat": 18.7911876,
  "lon": 98.9932335,
  "tags": {
    "brand": "TESCO Lotus Express",
    "name": "TESCO Lotus Express",
    "opening_hours": "24/7",
    "shop": "convenience"
  }
},
{
  "type": "node",
  "id": 3301938408,
  "lat": 18.8047949,
  "lon": 98.9843219,
  "tags": {
    "amenity": "pharmacy",
    "name": "ดำรงเภสัช",
    "name:en": "Damrong",
    "name:th": "ดำรงเภสัช"
  }
},
{
  "type": "node",
  "id": 3304475324,
  "lat": 18.8000525,
  "lon": 98.9733823,
  "tags": {
    "name": "Morning Laundry",
    "shop": "laundry"
  }
},
{
  "type": "node",
  "id": 3311199585,
  "lat": 18.8002410,
  "lon": 98.9753947,
  "tags": {
    "amenity": "pharmacy",
    "name": "CK Pharmacy",
    "name:en": "CK Pharmacy",
    "name:th": "กาแฟสารภี",
    "opening_hours": "Mo-Fr 09:00-23:00"
  }
},
{
  "type": "node",
  "id": 3311383798,
  "lat": 18.8045590,
  "lon": 98.9743536,
  "tags": {
    "name": "ร้านกระดังงา",
    "name:th": "ร้านกระดังงา",
    "shop": "convenience"
  }
},
{
  "type": "node",
  "id": 3311577718,
  "lat": 18.8054003,
  "lon": 98.9766449,
  "tags": {
    "shop": "convenience"
  }
},
{
  "type": "node",
  "id": 3311589186,
  "lat": 18.8055626,
  "lon": 98.9751031,
  "tags": {
    "alt_name": "7-11",
    "brand": "7-Eleven",
    "brand:website": "http://www.7eleven.co.th/",
    "brand:wikidata": "Q259340",
    "brand:wikipedia": "th:เซเว่น อีเลฟเว่น",
    "name": "7-Eleven",
    "name:en": "7-Eleven",
    "opening_hours": "24/7",
    "operator": "Seven & I Holdings",
    "shop": "convenience"
  }
},
{
  "type": "node",
  "id": 3312085672,
  "lat": 18.8004768,
  "lon": 98.9846234,
  "tags": {
    "addr:housenumber": "1/34",
    "addr:street": "ถนนช้างเผือก ซอย4",
    "name": "รวมภัณฑ์",
    "name:th": "รวมภัณฑ์",
    "shop": "convenience"
  }
},
{
  "type": "node",
  "id": 3316953761,
  "lat": 18.8045560,
  "lon": 98.9844240,
  "tags": {
    "name": "ตลาดธานิน",
    "shop": "supermarket"
  }
},
{
  "type": "node",
  "id": 3317920526,
  "lat": 18.7963795,
  "lon": 98.9830300,
  "tags": {
    "brand": "Jiffy",
    "name": "Jiffy",
    "shop": "convenience"
  }
},
{
  "type": "node",
  "id": 3318037427,
  "lat": 18.8092391,
  "lon": 98.9598283,
  "tags": {
    "name": "Art",
    "shop": "convenience"
  }
},
{
  "type": "node",
  "id": 3318044625,
  "lat": 18.8074320,
  "lon": 98.9670693,
  "tags": {
    "amenity": "pharmacy",
    "name": "เชิงดอยเภสัช",
    "name:th": "เชิงดอยเภสัช"
  }
},
{
  "type": "node",
  "id": 3318073706,
  "lat": 18.8105297,
  "lon": 99.0023523,
  "tags": {
    "amenity": "pharmacy",
    "name": "ขายยา"
  }
},
{
  "type": "node",
  "id": 3319117712,
  "lat": 18.7930808,
  "lon": 98.9538182,
  "tags": {
    "alt_name": "7-11",
    "brand": "7-Eleven",
    "brand:website": "http://www.7eleven.co.th/",
    "brand:wikidata": "Q259340",
    "brand:wikipedia": "th:เซเว่น อีเลฟเว่น",
    "name": "7-Eleven",
    "name:en": "7-Eleven",
    "shop": "convenience"
  }
},
{
  "type": "node",
  "id": 3331426911,
  "lat": 18.7529830,
  "lon": 99.0091450,
  "tags": {
    "amenity": "pharmacy",
    "healthcare": "pharmacy",
    "name:en": "Pharma \\Choice",
    "shop": "chemist"
  }
},
{
  "type": "node",
  "id": 3341640391,
  "lat": 18.7700901,
  "lon": 98.9501317,
  "tags": {
    "alt_name": "7-11",
    "brand": "7-Eleven",
    "brand:website": "http://www.7eleven.co.th/",
    "brand:wikidata": "Q259340",
    "brand:wikipedia": "th:เซเว่น อีเลฟเว่น",
    "name": "7-Eleven",
    "name:en": "7-Eleven",
    "opening_hours": "24/7",
    "shop": "convenience"
  }
},
{
  "type": "node",
  "id": 3342167098,
  "lat": 18.7417085,
  "lon": 98.9703512,
  "tags": {
    "alt_name": "7-11",
    "brand": "7-Eleven",
    "brand:website": "http://www.7eleven.co.th/",
    "brand:wikidata": "Q259340",
    "brand:wikipedia": "th:เซเว่น อีเลฟเว่น",
    "name": "7-Eleven",
    "name:en": "7-Eleven",
    "opening_hours": "24/7",
    "shop": "convenience"
  }
},
{
  "type": "node",
  "id": 3347631784,
  "lat": 18.7693089,
  "lon": 98.9755030,
  "tags": {
    "amenity": "pharmacy",
    "healthcare": "pharmacy",
    "level": "2",
    "name": "First Drug",
    "opening_hours": "Mo-Fr 11:00-21:00; Sa,Su 10:00-21:00"
  }
},
{
  "type": "node",
  "id": 3366969393,
  "lat": 18.8139059,
  "lon": 99.0049814,
  "tags": {
    "brand": "Lotus's",
    "name": "Lotus's Go Fresh",
    "not:brand:wikidata": "Q487494",
    "opening_hours": "24/7",
    "operator": "Lotus's",
    "shop": "convenience"
  }
},
{
  "type": "node",
  "id": 3369548675,
  "lat": 18.8092093,
  "lon": 98.9612723,
  "tags": {
    "automated": "yes",
    "fee": "yes",
    "shop": "laundry"
  }
},
{
  "type": "node",
  "id": 3369589473,
  "lat": 18.7899806,
  "lon": 98.9706109,
  "tags": {
    "amenity": "clinic",
    "healthcare": "clinic",
    "name": "Sriphat Imaging Centre",
    "opening_hours": "Mo-Sa 08:30-16:30",
    "source": "http://www.mapillary.com/map/im/MKoWAZBfm_MavjRg1PLH7A"
  }
},
{
  "type": "node",
  "id": 3369589477,
  "lat": 18.7901266,
  "lon": 98.9706292,
  "tags": {
    "brand": "Tops Daily",
    "name": "Tops Daily",
    "opening_hours": "Mo-Su 06:00-24:00",
    "shop": "supermarket",
    "source": "http://www.mapillary.com/map/im/MKoWAZBfm_MavjRg1PLH7A"
  }
},
{
  "type": "node",
  "id": 3385473051,
  "lat": 18.7842613,
  "lon": 98.9923805,
  "tags": {
    "shop": "convenience",
    "source": "https://www.mapillary.com/map/im/kcKG4g5QAX8jarwLnJ9VfQ"
  }
},
{
  "type": "node",
  "id": 3385484068,
  "lat": 18.7944319,
  "lon": 98.9790863,
  "tags": {
    "shop": "convenience"
  }
},
{
  "type": "node",
  "id": 3385487327,
  "lat": 18.7944251,
  "lon": 98.9795080,
  "tags": {
    "shop": "convenience"
  }
},
{
  "type": "node",
  "id": 3385494640,
  "lat": 18.7934288,
  "lon": 98.9797173,
  "tags": {
    "shop": "convenience"
  }
},
{
  "type": "node",
  "id": 3385507275,
  "lat": 18.7906626,
  "lon": 98.9784691,
  "tags": {
    "amenity": "pharmacy",
    "healthcare": "pharmacy",
    "name": "Modern Drug"
  }
},
{
  "type": "node",
  "id": 3385517692,
  "lat": 18.7903771,
  "lon": 98.9784530,
  "tags": {
    "shop": "convenience"
  }
},
{
  "type": "node",
  "id": 3388703312,
  "lat": 18.7879954,
  "lon": 98.9802221,
  "tags": {
    "name": "ร้านน้องโบ",
    "name:en": "Nong Bo",
    "name:th": "ร้านน้องโบ",
    "shop": "convenience"
  }
},
{
  "type": "node",
  "id": 3388707633,
  "lat": 18.7863509,
  "lon": 98.9790947,
  "tags": {
    "operator": "independent",
    "shop": "convenience"
  }
},
{
  "type": "node",
  "id": 3388725145,
  "lat": 18.7841578,
  "lon": 98.9828388,
  "tags": {
    "check_date": "2023-12-10",
    "operator": "independent",
    "shop": "convenience"
  }
},
{
  "type": "node",
  "id": 3394760978,
  "lat": 18.7762653,
  "lon": 98.9990091,
  "tags": {
    "amenity": "pharmacy",
    "drive_through": "no",
    "healthcare": "pharmacy",
    "name": "เวชไพศาลฟาร์ม่า"
  }
},
{
  "type": "node",
  "id": 3394773238,
  "lat": 18.7972954,
  "lon": 98.9972530,
  "tags": {
    "name": "Siam Frozen",
    "shop": "supermarket"
  }
},
{
  "type": "node",
  "id": 3394774002,
  "lat": 18.7990832,
  "lon": 98.9980571,
  "tags": {
    "amenity": "pharmacy",
    "name": "ปรียาเภสัช",
    "name:th": "ปรียาเภสัช"
  }
},
{
  "type": "node",
  "id": 3401514793,
  "lat": 18.7725444,
  "lon": 98.9796188,
  "tags": {
    "alt_name": "7-11",
    "brand": "7-Eleven",
    "brand:website": "http://www.7eleven.co.th/",
    "brand:wikidata": "Q259340",
    "brand:wikipedia": "th:เซเว่น อีเลฟเว่น",
    "name": "7-Eleven",
    "name:en": "7-Eleven",
    "shop": "convenience"
  }
},
{
  "type": "node",
  "id": 3410016960,
  "lat": 18.7544115,
  "lon": 99.0166024,
  "tags": {
    "automated": "yes",
    "payment:cash": "yes",
    "shop": "laundry"
  }
},
{
  "type": "node",
  "id": 3412153329,
  "lat": 18.7575095,
  "lon": 99.0085034,
  "tags": {
    "name:en": "City Mart",
    "shop": "convenience"
  }
},
{
  "type": "node",
  "id": 3412153337,
  "lat": 18.7574547,
  "lon": 99.0086130,
  "tags": {
    "shop": "laundry"
  }
},
{
  "type": "node",
  "id": 3414272478,
  "lat": 18.7861198,
  "lon": 98.9955816,
  "tags": {
    "addr:housenumber": "12/1",
    "addr:street": "ถนน ท่าแพ ซอย 4",
    "operator": "independent",
    "shop": "convenience"
  }
},
{
  "type": "node",
  "id": 3414275597,
  "lat": 18.7857106,
  "lon": 98.9956825,
  "tags": {
    "laundry_service": "yes",
    "self_service": "no",
    "shop": "laundry"
  }
},
{
  "type": "node",
  "id": 3415499426,
  "lat": 18.7846131,
  "lon": 98.9954968,
  "tags": {
    "alt_name": "7-11",
    "brand": "7-Eleven",
    "brand:website": "http://www.7eleven.co.th/",
    "brand:wikidata": "Q259340",
    "brand:wikipedia": "th:เซเว่น อีเลฟเว่น",
    "name": "7-Eleven",
    "name:en": "7-Eleven",
    "opening_hours": "24/7",
    "shop": "convenience"
  }
},
{
  "type": "node",
  "id": 3416985814,
  "lat": 18.7841476,
  "lon": 98.9991271,
  "tags": {
    "amenity": "pharmacy"
  }
},
{
  "type": "node",
  "id": 3416994640,
  "lat": 18.7835083,
  "lon": 99.0003899,
  "tags": {
    "alt_name": "7-11",
    "brand": "7-Eleven",
    "brand:website": "http://www.7eleven.co.th/",
    "brand:wikidata": "Q259340",
    "brand:wikipedia": "th:เซเว่น อีเลฟเว่น",
    "level": "-1",
    "name": "7-Eleven",
    "name:en": "7-Eleven",
    "opening_hours": "24/7",
    "shop": "convenience"
  }
},
{
  "type": "node",
  "id": 3417161543,
  "lat": 18.7851543,
  "lon": 99.0028332,
  "tags": {
    "amenity": "pharmacy",
    "name": "ร้านขายยา"
  }
},
{
  "type": "node",
  "id": 3417307162,
  "lat": 18.7849866,
  "lon": 99.0002871,
  "tags": {
    "amenity": "pharmacy",
    "healthcare": "pharmacy"
  }
},
{
  "type": "node",
  "id": 3417307169,
  "lat": 18.7857915,
  "lon": 99.0007959,
  "tags": {
    "alt_name": "7-11",
    "brand": "7-Eleven",
    "brand:website": "http://www.7eleven.co.th/",
    "brand:wikidata": "Q259340",
    "brand:wikipedia": "th:เซเว่น อีเลฟเว่น",
    "name": "7-Eleven",
    "name:en": "7-Eleven",
    "opening_hours": "24/7",
    "shop": "convenience"
  }
},
{
  "type": "node",
  "id": 3417322296,
  "lat": 18.7968757,
  "lon": 98.9663344,
  "tags": {
    "amenity": "pharmacy",
    "healthcare": "pharmacy",
    "name": "เมดิก้า ฮับ",
    "name:en": "Medica Hub",
    "name:th": "เมดิก้า ฮับ"
  }
},
{
  "type": "node",
  "id": 3418927994,
  "lat": 18.7893556,
  "lon": 98.9974888,
  "tags": {
    "shop": "convenience"
  }
},
{
  "type": "node",
  "id": 3420974159,
  "lat": 18.7960933,
  "lon": 98.9708737,
  "tags": {
    "amenity": "pharmacy",
    "name": "Pharmatist",
    "opening_hours": "Mo-Su 10:00-24:00"
  }
},
{
  "type": "node",
  "id": 3420998761,
  "lat": 18.7950452,
  "lon": 98.9722166,
  "tags": {
    "amenity": "clinic",
    "healthcare": "clinic",
    "healthcare:speciality": "aesthetic",
    "name": "Sarinya Clinic",
    "website": "https://www.sarinya-clinic.com"
  }
},
{
  "type": "node",
  "id": 3421271718,
  "lat": 18.7915993,
  "lon": 98.9698127,
  "tags": {
    "alt_name": "ร้านสหกรณ์มหาวิทยาลัยเชียงใหม่ จำกัด",
    "name:en": "CMU coop",
    "name:th": "ร้านสหกรณ์มหาวิทยาลัยเชียงใหม่ จำกัด",
    "opening_hours": "Mo-Su 06:00-22:00",
    "shop": "convenience",
    "short_name:th": "สหกรณ์"
  }
},
{
  "type": "node",
  "id": 3490774894,
  "lat": 18.7982929,
  "lon": 99.0219696,
  "tags": {
    "brand": "Big C",
    "brand:wikidata": "Q858665",
    "name": "Big C",
    "name:ru": "Big C Гипермаркет",
    "name:zh": "Big C超市",
    "shop": "supermarket"
  }
},
{
  "type": "node",
  "id": 3606223704,
  "lat": 18.7609210,
  "lon": 99.0115395,
  "tags": {
    "name": "Fresh Mart",
    "shop": "convenience",
    "source": "http://www.mapillary.com/map/im/luhwuNkb7asz72lbN-WDCg"
  }
},
{
  "type": "node",
  "id": 3606253655,
  "lat": 18.7622722,
  "lon": 99.0114285,
  "tags": {
    "alt_name": "7-11",
    "brand": "7-Eleven",
    "brand:website": "http://www.7eleven.co.th/",
    "brand:wikidata": "Q259340",
    "brand:wikipedia": "th:เซเว่น อีเลฟเว่น",
    "name": "7-Eleven",
    "name:en": "7-Eleven",
    "shop": "convenience"
  }
},
{
  "type": "node",
  "id": 3607394779,
  "lat": 18.7587558,
  "lon": 98.9954425,
  "tags": {
    "alt_name": "7-11",
    "brand": "7-Eleven",
    "brand:website": "http://www.7eleven.co.th/",
    "brand:wikidata": "Q259340",
    "brand:wikipedia": "th:เซเว่น อีเลฟเว่น",
    "name": "7-Eleven",
    "name:en": "7-Eleven",
    "shop": "convenience",
    "source": "http://www.mapillary.com/map/im/LffPizOoUaQSpzYP2Tt6fA"
  }
},
{
  "type": "node",
  "id": 3607456993,
  "lat": 18.7545743,
  "lon": 98.9897055,
  "tags": {
    "alt_name": "7-11",
    "brand": "7-Eleven",
    "brand:website": "http://www.7eleven.co.th/",
    "brand:wikidata": "Q259340",
    "brand:wikipedia": "th:เซเว่น อีเลฟเว่น",
    "name": "7-Eleven",
    "name:en": "7-Eleven",
    "shop": "convenience",
    "source": "http://www.mapillary.com/map/im/LCMnI8p9z5vbDG7ZUSPtVg"
  }
},
{
  "type": "node",
  "id": 3619950894,
  "lat": 18.7886013,
  "lon": 98.9924144,
  "tags": {
    "addr:street": "ถนนราชดำเนินซอย 1",
    "shop": "convenience"
  }
},
{
  "type": "node",
  "id": 3652667625,
  "lat": 18.7849695,
  "lon": 98.9934743,
  "tags": {
    "shop": "convenience",
    "source": "http://www.mapillary.com/map/im/7sm1MrDAE0iRGplLVaq_Vg"
  }
},
{
  "type": "node",
  "id": 3652948358,
  "lat": 18.7710262,
  "lon": 98.9852754,
  "tags": {
    "alt_name": "7-11",
    "brand": "7-Eleven",
    "brand:website": "http://www.7eleven.co.th/",
    "brand:wikidata": "Q259340",
    "brand:wikipedia": "th:เซเว่น อีเลฟเว่น",
    "name": "7-Eleven",
    "name:en": "7-Eleven",
    "shop": "convenience",
    "source": "http://www.mapillary.com/map/im/saWEwSzC4F22y4g_2WWAog"
  }
},
{
  "type": "node",
  "id": 3779647860,
  "lat": 18.8082398,
  "lon": 98.9736870,
  "tags": {
    "alt_name": "7-11",
    "brand": "7-Eleven",
    "brand:website": "http://www.7eleven.co.th/",
    "brand:wikidata": "Q259340",
    "brand:wikipedia": "th:เซเว่น อีเลฟเว่น",
    "name": "7-Eleven",
    "name:en": "7-Eleven",
    "opening_hours": "24/7",
    "operator": "Seven & I Holdings",
    "shop": "convenience"
  }
},
{
  "type": "node",
  "id": 3845081623,
  "lat": 18.7795085,
  "lon": 98.9880287,
  "tags": {
    "shop": "laundry"
  }
},
{
  "type": "node",
  "id": 3845081624,
  "lat": 18.7790906,
  "lon": 98.9881338,
  "tags": {
    "laundry_service": "yes",
    "self_service": "no",
    "shop": "laundry"
  }
},
{
  "type": "node",
  "id": 3864514714,
  "lat": 18.7464362,
  "lon": 98.9999232,
  "tags": {
    "automated": "yes",
    "name:es": "Lavar ropa",
    "shop": "laundry"
  }
},
{
  "type": "node",
  "id": 3891204865,
  "lat": 18.8081701,
  "lon": 98.9735768,
  "tags": {
    "amenity": "pharmacy",
    "name": "ร้านยาเชียงใหม่",
    "name:en": "Ran Ya Chiang Mai",
    "name:th": "ร้านยาเชียงใหม่"
  }
},
{
  "type": "node",
  "id": 3939226277,
  "lat": 18.8049777,
  "lon": 98.9934413,
  "tags": {
    "shop": "laundry"
  }
},
{
  "type": "node",
  "id": 3962902036,
  "lat": 18.8101247,
  "lon": 98.9702192,
  "tags": {
    "leisure": "park"
  }
},
{
  "type": "node",
  "id": 3962904007,
  "lat": 18.8093478,
  "lon": 98.9705088,
  "tags": {
    "leisure": "playground"
  }
},
{
  "type": "node",
  "id": 3993026275,
  "lat": 18.7478350,
  "lon": 99.0005885,
  "tags": {
    "shop": "convenience"
  }
},
{
  "type": "node",
  "id": 4010681901,
  "lat": 18.7637717,
  "lon": 99.0087042,
  "tags": {
    "automated": "yes",
    "shop": "laundry"
  }
},
{
  "type": "node",
  "id": 4018140121,
  "lat": 18.7921691,
  "lon": 98.9568284,
  "tags": {
    "alt_name": "7-11",
    "brand": "7-Eleven",
    "brand:website": "http://www.7eleven.co.th/",
    "brand:wikidata": "Q259340",
    "brand:wikipedia": "th:เซเว่น อีเลฟเว่น",
    "name": "7-Eleven",
    "name:en": "7-Eleven",
    "shop": "convenience",
    "wheelchair": "limited"
  }
},
{
  "type": "node",
  "id": 4018147624,
  "lat": 18.7912739,
  "lon": 98.9594489,
  "tags": {
    "name": "ห้างสรรพสินค้าแจ่มฟ้า",
    "shop": "supermarket",
    "wheelchair": "limited"
  }
},
{
  "type": "node",
  "id": 4049736971,
  "lat": 18.7508065,
  "lon": 98.9922518,
  "tags": {
    "shop": "convenience"
  }
},
{
  "type": "node",
  "id": 4049736974,
  "lat": 18.7524122,
  "lon": 99.0009182,
  "tags": {
    "shop": "convenience"
  }
},
{
  "type": "node",
  "id": 4060926276,
  "lat": 18.7456674,
  "lon": 98.9968901,
  "tags": {
    "shop": "convenience"
  }
},
{
  "type": "node",
  "id": 4060926279,
  "lat": 18.7467968,
  "lon": 98.9973507,
  "tags": {
    "shop": "convenience"
  }
},
{
  "type": "node",
  "id": 4060926286,
  "lat": 18.7482144,
  "lon": 98.9992163,
  "tags": {
    "shop": "convenience"
  }
},
{
  "type": "node",
  "id": 4060926507,
  "lat": 18.7493379,
  "lon": 99.0090439,
  "tags": {
    "shop": "convenience"
  }
},
{
  "type": "node",
  "id": 4060926523,
  "lat": 18.7505442,
  "lon": 98.9921174,
  "tags": {
    "shop": "convenience"
  }
},
{
  "type": "node",
  "id": 4060926525,
  "lat": 18.7506954,
  "lon": 99.0060148,
  "tags": {
    "shop": "convenience"
  }
},
{
  "type": "node",
  "id": 4060926530,
  "lat": 18.7510920,
  "lon": 99.0040053,
  "tags": {
    "shop": "convenience"
  }
},
{
  "type": "node",
  "id": 4064638403,
  "lat": 18.7726267,
  "lon": 98.9934234,
  "tags": {
    "alt_name": "7-11",
    "brand": "7-Eleven",
    "brand:website": "http://www.7eleven.co.th/",
    "brand:wikidata": "Q259340",
    "brand:wikipedia": "th:เซเว่น อีเลฟเว่น",
    "name": "7-Eleven",
    "name:en": "7-Eleven",
    "opening_hours": "24/7",
    "shop": "convenience"
  }
},
{
  "type": "node",
  "id": 4067902170,
  "lat": 18.7397944,
  "lon": 98.9805030,
  "tags": {
    "alt_name": "7-11",
    "brand": "7-Eleven",
    "brand:website": "http://www.7eleven.co.th/",
    "brand:wikidata": "Q259340",
    "brand:wikipedia": "th:เซเว่น อีเลฟเว่น",
    "name": "7-Eleven",
    "name:en": "7-Eleven",
    "opening_hours": "24/7",
    "shop": "convenience"
  }
},
{
  "type": "node",
  "id": 4067950597,
  "lat": 18.7465722,
  "lon": 98.9999218,
  "tags": {
    "shop": "convenience"
  }
},
{
  "type": "node",
  "id": 4067975168,
  "lat": 18.7471057,
  "lon": 99.0085267,
  "tags": {
    "shop": "convenience"
  }
},
{
  "type": "node",
  "id": 4080848528,
  "lat": 18.7481132,
  "lon": 98.9985091,
  "tags": {
    "shop": "convenience"
  }
},
{
  "type": "node",
  "id": 4102796840,
  "lat": 18.7892525,
  "lon": 99.0255321,
  "tags": {
    "alt_name": "7-11",
    "brand": "7-Eleven",
    "brand:website": "http://www.7eleven.co.th/",
    "brand:wikidata": "Q259340",
    "brand:wikipedia": "th:เซเว่น อีเลฟเว่น",
    "level": "0",
    "name": "7-Eleven",
    "name:en": "7-Eleven",
    "shop": "convenience"
  }
},
{
  "type": "node",
  "id": 4115755636,
  "lat": 18.7438588,
  "lon": 98.9869996,
  "tags": {
    "shop": "convenience"
  }
},
{
  "type": "node",
  "id": 4176602491,
  "lat": 18.7835825,
  "lon": 98.9984660,
  "tags": {
    "laundry_service": "yes",
    "name": "Clean & Care Laundry",
    "opening_hours": "Mo-Sa 09:00-18:30",
    "self_service": "no",
    "shop": "laundry"
  }
},
{
  "type": "node",
  "id": 4216607001,
  "lat": 18.8156640,
  "lon": 98.9824008,
  "tags": {
    "alt_name": "7-11",
    "brand": "7-Eleven",
    "brand:website": "http://www.7eleven.co.th/",
    "brand:wikidata": "Q259340",
    "brand:wikipedia": "th:เซเว่น อีเลฟเว่น",
    "name": "7-Eleven",
    "name:en": "7-Eleven",
    "opening_hours": "24/7",
    "operator": "Seven & I Holdings",
    "shop": "convenience"
  }
},
{
  "type": "node",
  "id": 4216612497,
  "lat": 18.8154851,
  "lon": 98.9824256,
  "tags": {
    "amenity": "pharmacy",
    "name": "Premium Drug",
    "opening_hours": "Mo-Su 09:00-21:00"
  }
},
{
  "type": "node",
  "id": 4252082831,
  "lat": 18.8073975,
  "lon": 98.9849918,
  "tags": {
    "brand": "7-Eleven",
    "brand:website": "http://www.7eleven.co.th/",
    "brand:wikidata": "Q259340",
    "brand:wikipedia": "th:เซเว่น อีเลฟเว่น",
    "check_date": "2024-11-14",
    "name": "7-Eleven",
    "name:en": "7-Eleven",
    "opening_hours": "24/7",
    "operator": "Seven & I Holdings",
    "shop": "convenience"
  }
},
{
  "type": "node",
  "id": 4273017089,
  "lat": 18.7767958,
  "lon": 98.9977687,
  "tags": {
    "laundry_service": "no",
    "name": "BB Massage and Laundry",
    "self_service": "yes",
    "shop": "laundry"
  }
},
{
  "type": "node",
  "id": 4279862391,
  "lat": 18.7813873,
  "lon": 99.0029866,
  "tags": {
    "shop": "laundry"
  }
},
{
  "type": "node",
  "id": 4293930191,
  "lat": 18.7497962,
  "lon": 98.9778195,
  "tags": {
    "name": "ร้านขายของ",
    "shop": "convenience"
  }
},
{
  "type": "node",
  "id": 4334725589,
  "lat": 18.7736074,
  "lon": 99.0209871,
  "tags": {
    "addr:housenumber": "93/1",
    "addr:postcode": "50000",
    "addr:street": "ถนน ต้นขาม 2",
    "amenity": "clinic",
    "internet_access": "wlan",
    "name": "บ้านต้นขาม 2",
    "opening_hours": "24/7"
  }
},
{
  "type": "node",
  "id": 4337927190,
  "lat": 18.7853931,
  "lon": 98.9929111,
  "tags": {
    "name": "fair trade shop",
    "shop": "convenience"
  }
},
{
  "type": "node",
  "id": 4351257789,
  "lat": 18.8044413,
  "lon": 98.9814845,
  "tags": {
    "laundry_service": "yes",
    "name": "Coin Laundry",
    "opening_hours": "24/7",
    "self_service": "yes",
    "shop": "laundry"
  }
},
{
  "type": "node",
  "id": 4353683215,
  "lat": 18.7897390,
  "lon": 98.9561811,
  "tags": {
    "name": "ร้านซักรีด",
    "shop": "laundry"
  }
},
{
  "type": "node",
  "id": 4353683216,
  "lat": 18.7891165,
  "lon": 98.9558002,
  "tags": {
    "name": "ร้านซักรีด",
    "opening_hours": "Mo-Su 00:00-24:00;Th 00:00-24:00",
    "shop": "laundry"
  }
},
{
  "type": "node",
  "id": 4358693890,
  "lat": 18.7840503,
  "lon": 98.9820794,
  "tags": {
    "amenity": "pharmacy",
    "name": "จ่ายยา",
    "name:en": "Pharmacy",
    "name:th": "จ่ายยา"
  }
},
{
  "type": "node",
  "id": 4358795393,
  "lat": 18.7514850,
  "lon": 98.9655462,
  "tags": {
    "name": "ตลาดวรุณ",
    "shop": "supermarket"
  }
},
{
  "type": "node",
  "id": 4358814722,
  "lat": 18.7513471,
  "lon": 98.9653596,
  "tags": {
    "brand": "7-Eleven",
    "brand:wikidata": "Q259340",
    "name": "7-Eleven",
    "shop": "convenience"
  }
},
{
  "type": "node",
  "id": 4385522690,
  "lat": 18.8076993,
  "lon": 98.9660800,
  "tags": {
    "amenity": "clinic",
    "name": "Le' Rin Clinic",
    "source": "GPS"
  }
},
{
  "type": "node",
  "id": 4391164689,
  "lat": 18.7973373,
  "lon": 98.9985197,
  "tags": {
    "addr:housenumber": "80",
    "name": "ร้านไพโรจ รับซื้อขาย เครื่องเทศและผักทุกชนิด",
    "name:th": "ร้านไพโรจ รับซื้อขาย เครื่องเทศและผักทุกชนิด",
    "note": "please recheck name:th spelling",
    "phone": "0819921239",
    "shop": "convenience"
  }
},
{
  "type": "node",
  "id": 4423570364,
  "lat": 18.7767673,
  "lon": 98.9973092,
  "tags": {
    "name:en": "Benz Minimarket",
    "shop": "convenience"
  }
},
{
  "type": "node",
  "id": 4427305591,
  "lat": 18.8166633,
  "lon": 98.9735644,
  "tags": {
    "access": "yes",
    "leisure": "playground"
  }
},
{
  "type": "node",
  "id": 4430081797,
  "lat": 18.7864129,
  "lon": 98.9919548,
  "tags": {
    "addr:city": "Chiang Mai",
    "addr:street": "ถนนมูลเมือง ซอย3",
    "name": "Corner Store",
    "shop": "convenience"
  }
},
{
  "type": "node",
  "id": 4449627840,
  "lat": 18.7522669,
  "lon": 98.9662679,
  "tags": {
    "addr:city": "เชียงใหม่",
    "addr:postcode": "50100",
    "name": "Shell Select ทองธนพล สาขาสนามบิน",
    "name:en": "Shell Select Thongthanaphon - Airport",
    "payment:cash": "yes",
    "payment:credit_cards": "yes",
    "payment:debit_cards": "yes",
    "shop": "convenience"
  }
},
{
  "type": "node",
  "id": 4449627841,
  "lat": 18.7632167,
  "lon": 98.9744196,
  "tags": {
    "brand": "Tiger Mart",
    "brand:wikidata": "Q57643977",
    "name": "Tiger Mart",
    "shop": "convenience"
  }
},
{
  "type": "node",
  "id": 4480913382,
  "lat": 18.8251209,
  "lon": 98.9797246,
  "tags": {
    "amenity": "pharmacy",
    "name": "กล่องยา เภสัช",
    "name:en": "Klong Ya Pharmacy",
    "name:th": "กล่องยา เภสัช"
  }
},
{
  "type": "node",
  "id": 4484769089,
  "lat": 18.7937884,
  "lon": 98.9900368,
  "tags": {
    "name": "7-Eleven",
    "name:th": "7-Eleven",
    "opening_hours": "24/7",
    "shop": "convenience"
  }
},
{
  "type": "node",
  "id": 4506356633,
  "lat": 18.7864625,
  "lon": 98.9904201,
  "tags": {
    "shop": "laundry"
  }
},
{
  "type": "node",
  "id": 4507430390,
  "lat": 18.7925869,
  "lon": 98.9943712,
  "tags": {
    "name": "T.K laundry",
    "name:en": "T.K laundry",
    "shop": "laundry"
  }
},
{
  "type": "node",
  "id": 4508376589,
  "lat": 18.7908124,
  "lon": 98.9947491,
  "tags": {
    "laundry_service": "yes",
    "name:en": "Laundry Service",
    "opening_hours": "Mo-Su 08:00-20:00",
    "self_service": "no",
    "shop": "laundry"
  }
},
{
  "type": "node",
  "id": 4508616289,
  "lat": 18.7897448,
  "lon": 98.9937062,
  "tags": {
    "shop": "laundry"
  }
},
{
  "type": "node",
  "id": 4509283283,
  "lat": 18.7834735,
  "lon": 99.0056209,
  "tags": {
    "amenity": "pharmacy",
    "name": "First Drug"
  }
},
{
  "type": "node",
  "id": 4509283286,
  "lat": 18.7633327,
  "lon": 99.0058979,
  "tags": {
    "amenity": "pharmacy"
  }
},
{
  "type": "node",
  "id": 4509307974,
  "lat": 18.7558466,
  "lon": 99.0081483,
  "tags": {
    "amenity": "pharmacy",
    "name:en": "Maeraming"
  }
},
{
  "type": "node",
  "id": 4535499827,
  "lat": 18.7987475,
  "lon": 98.9880990,
  "tags": {
    "shop": "convenience"
  }
},
{
  "type": "node",
  "id": 4535595825,
  "lat": 18.7983971,
  "lon": 98.9880796,
  "tags": {
    "shop": "convenience"
  }
},
{
  "type": "node",
  "id": 4535596553,
  "lat": 18.7978263,
  "lon": 98.9874156,
  "tags": {
    "shop": "convenience"
  }
},
{
  "type": "node",
  "id": 4535602957,
  "lat": 18.7976926,
  "lon": 98.9870456,
  "tags": {
    "amenity": "pharmacy",
    "name": "อาลียารินเฮ้าส์",
    "name:en": "Ali Pharmacy",
    "name:th": "อาลียารินเฮ้าส์"
  }
},
{
  "type": "node",
  "id": 4535968161,
  "lat": 18.7969783,
  "lon": 98.9918821,
  "tags": {
    "shop": "convenience"
  }
},
{
  "type": "node",
  "id": 4535972715,
  "lat": 18.7968589,
  "lon": 98.9931149,
  "tags": {
    "shop": "convenience"
  }
},
{
  "type": "node",
  "id": 4536272522,
  "lat": 18.7982324,
  "lon": 98.9923429,
  "tags": {
    "amenity": "pharmacy",
    "name": "จื้อกิมโอสถ",
    "name:en": "Chue Kim Osot",
    "name:th": "จื้อกิมโอสถ"
  }
},
{
  "type": "node",
  "id": 4536336405,
  "lat": 18.7970545,
  "lon": 98.9968279,
  "tags": {
    "name": "Mungmai 88 Food",
    "name:th": "เมืองใหม่88ฟู้ด",
    "shop": "convenience"
  }
},
{
  "type": "node",
  "id": 4536364650,
  "lat": 18.7919662,
  "lon": 98.9958559,
  "tags": {
    "shop": "convenience"
  }
},
{
  "type": "node",
  "id": 4539213081,
  "lat": 18.7875351,
  "lon": 98.9690256,
  "tags": {
    "amenity": "pharmacy",
    "name": "พีทีฟาร์มาซี",
    "name:en": "PT Pharmacy",
    "name:th": "พีทีฟาร์มาซี"
  }
},
{
  "type": "node",
  "id": 4557856200,
  "lat": 18.7990416,
  "lon": 99.0108621,
  "tags": {
    "alt_name": "7-11",
    "brand": "7-Eleven",
    "brand:wikidata": "Q259340",
    "brand:wikipedia": "en:7-Eleven",
    "name": "7-Eleven",
    "shop": "convenience"
  }
},
{
  "type": "node",
  "id": 4559223067,
  "lat": 18.7919464,
  "lon": 98.9933094,
  "tags": {
    "addr:housenumber": "183",
    "amenity": "pharmacy",
    "name": "ร้านขายยา ชัยดิษฐ์",
    "name:en": "Chai Dit Pharmacy",
    "name:th": "ร้านขายยา ชัยดิษฐ์"
  }
},
{
  "type": "node",
  "id": 4559256793,
  "lat": 18.7888940,
  "lon": 98.9733408,
  "tags": {
    "amenity": "pharmacy",
    "name": "Pharma Choice",
    "opening_hours": "Mo-Sa 07:30-21:30"
  }
},
{
  "type": "node",
  "id": 4559279125,
  "lat": 18.7894890,
  "lon": 98.9653593,
  "tags": {
    "brand": "CP Fresh Mart",
    "name": "CP Fresh Mart",
    "shop": "convenience"
  }
},
{
  "type": "node",
  "id": 4559286249,
  "lat": 18.7862410,
  "lon": 98.9592894,
  "tags": {
    "brand": "7-Eleven",
    "brand:wikidata": "Q259340",
    "name": "7-Eleven",
    "opening_hours": "24/7",
    "shop": "convenience",
    "wheelchair": "no"
  }
},
{
  "type": "node",
  "id": 4559288558,
  "lat": 18.7828737,
  "lon": 98.9560848,
  "tags": {
    "name": "ร้านป้าจินต์",
    "name:en": "Pa Chin",
    "name:th": "ร้านป้าจินต์",
    "shop": "convenience"
  }
},
{
  "type": "node",
  "id": 4564424091,
  "lat": 18.7791175,
  "lon": 98.9883702,
  "tags": {
    "laundry_service": "no",
    "self_service": "yes",
    "shop": "laundry"
  }
},
{
  "type": "node",
  "id": 4582158291,
  "lat": 18.7682672,
  "lon": 98.9827062,
  "tags": {
    "addr:street": "ถนนมหิดล",
    "name": "มินิบิ๊กซี",
    "name:en": "Mini BigC",
    "name:th": "มินิบิ๊กซี",
    "opening_hours": "24/7",
    "shop": "convenience"
  }
},
{
  "type": "node",
  "id": 4584097442,
  "lat": 18.7939500,
  "lon": 99.0177583,
  "tags": {
    "amenity": "pharmacy",
    "name": "มีนาเภสัช",
    "name:en": "Mina Pharmacy",
    "name:th": "มีนาเภสัช",
    "opening_hours": "Mo-Su 09:00-22:00"
  }
},
{
  "type": "node",
  "id": 4594022592,
  "lat": 18.7658998,
  "lon": 98.9916531,
  "tags": {
    "amenity": "clinic",
    "healthcare": "clinic",
    "name": "นนทรมย์คลินิก",
    "name:en": "Nontarom Clinic",
    "name:th": "นนทรมย์คลินิก"
  }
},
{
  "type": "node",
  "id": 4596241380,
  "lat": 18.8011013,
  "lon": 98.9626747,
  "tags": {
    "name": "OT Minimart",
    "opening_hours": "Mo-Su 09:00-23:00",
    "shop": "convenience"
  }
},
{
  "type": "node",
  "id": 4643395175,
  "lat": 18.7821506,
  "lon": 98.9997946,
  "tags": {
    "level": "0",
    "name": "Big C Market",
    "opening_hours": "09:00-00:00",
    "shop": "supermarket"
  }
},
{
  "type": "node",
  "id": 4678680756,
  "lat": 18.7911679,
  "lon": 98.9745804,
  "tags": {
    "shop": "convenience"
  }
},
{
  "type": "node",
  "id": 4678680766,
  "lat": 18.7902129,
  "lon": 98.9740482,
  "tags": {
    "level": "6",
    "name": "ร้านค้าสวัสดิการ ชั้น 7",
    "name:en": "Convenience Store (7F)",
    "name:th": "ร้านค้าสวัสดิการ ชั้น 7",
    "shop": "convenience"
  }
},
{
  "type": "node",
  "id": 4680102959,
  "lat": 18.7917935,
  "lon": 98.9702559,
  "tags": {
    "name:en": "Laundry",
    "shop": "laundry"
  }
},
{
  "type": "node",
  "id": 4686850689,
  "lat": 18.8001364,
  "lon": 99.0169230,
  "tags": {
    "brand": "7-Eleven",
    "brand:wikidata": "Q259340",
    "name": "7-Eleven",
    "name:de": "7-Eleven",
    "name:en": "7-Eleven",
    "name:th": "7-Eleven",
    "shop": "convenience"
  }
},
{
  "type": "node",
  "id": 4701312689,
  "lat": 18.7990278,
  "lon": 98.9812594,
  "tags": {
    "name:en": "Laundromat",
    "shop": "laundry"
  }
},
{
  "type": "node",
  "id": 4719397592,
  "lat": 18.7878426,
  "lon": 98.9599001,
  "tags": {
    "addr:postcode": "50200",
    "addr:street": "ถนนเลียบคลองชลประทาน",
    "opening_hours": "Mo-Sa 07:00-20:00",
    "phone": "+66896377594",
    "shop": "laundry"
  }
},
{
  "type": "node",
  "id": 4739211070,
  "lat": 18.7935041,
  "lon": 98.9521381,
  "tags": {
    "brand": "7-Eleven",
    "brand:wikidata": "Q259340",
    "name": "7-Eleven",
    "shop": "convenience"
  }
},
{
  "type": "node",
  "id": 4793527426,
  "lat": 18.8022345,
  "lon": 98.9765243,
  "tags": {
    "name:en": "20bht store",
    "shop": "supermarket"
  }
},
{
  "type": "node",
  "id": 4809256622,
  "lat": 18.7622511,
  "lon": 99.0112724,
  "tags": {
    "name": "บิ๊กซี",
    "name:en": "Big C mini",
    "name:th": "บิ๊กซี",
    "shop": "convenience"
  }
},
{
  "type": "node",
  "id": 4809908024,
  "lat": 18.7877493,
  "lon": 98.9934304,
  "tags": {
    "leisure": "playground",
    "wheelchair": "yes"
  }
},
{
  "type": "node",
  "id": 4834711421,
  "lat": 18.7795835,
  "lon": 98.9996236,
  "tags": {
    "addr:city": "Chiang Mai",
    "amenity": "pharmacy",
    "description": "Owner speaks very good English.",
    "drive_through": "no",
    "healthcare": "pharmacy",
    "wheelchair": "no"
  }
},
{
  "type": "node",
  "id": 4836661028,
  "lat": 18.7685319,
  "lon": 98.9976712,
  "tags": {
    "amenity": "clinic",
    "name:en": "Pet Clinic"
  }
},
{
  "type": "node",
  "id": 4867347423,
  "lat": 18.7810532,
  "lon": 98.9977974,
  "tags": {
    "check_date": "2024-04-10",
    "name": "Big C Mini",
    "opening_hours": "24/7",
    "shop": "convenience"
  }
},
{
  "type": "node",
  "id": 4876346524,
  "lat": 18.7810492,
  "lon": 99.0010277,
  "tags": {
    "shop": "laundry"
  }
},
{
  "type": "node",
  "id": 4876346628,
  "lat": 18.7813920,
  "lon": 99.0021623,
  "tags": {
    "shop": "laundry"
  }
},
{
  "type": "node",
  "id": 4876346924,
  "lat": 18.7814072,
  "lon": 99.0022439,
  "tags": {
    "name": "7-Eleven",
    "shop": "convenience"
  }
},
{
  "type": "node",
  "id": 4876909324,
  "lat": 18.7793168,
  "lon": 98.9996133,
  "tags": {
    "shop": "laundry"
  }
},
{
  "type": "node",
  "id": 4886910421,
  "lat": 18.7816444,
  "lon": 98.9826305,
  "tags": {
    "internet_access": "wlan",
    "laundry_service": "no",
    "name": "CleanPro",
    "name:en": "24hr Self Service Laundry",
    "name:th": "CleanPro",
    "opening_hours": "24/7",
    "self_service": "yes",
    "shop": "laundry"
  }
},
{
  "type": "node",
  "id": 4918071821,
  "lat": 18.7877170,
  "lon": 98.9925596,
  "tags": {
    "amenity": "pharmacy",
    "name:en": "Pharma Square",
    "wheelchair": "no"
  }
},
{
  "type": "node",
  "id": 4962179026,
  "lat": 18.8001012,
  "lon": 99.0126598,
  "tags": {
    "amenity": "pharmacy",
    "name": "ดาราเภสัช",
    "name:en": "Dara Pharmacy",
    "name:th": "ดาราเภสัช"
  }
},
{
  "type": "node",
  "id": 5006992121,
  "lat": 18.7724628,
  "lon": 98.9795669,
  "tags": {
    "amenity": "pharmacy"
  }
},
{
  "type": "node",
  "id": 5070484823,
  "lat": 18.7993161,
  "lon": 99.0176333,
  "tags": {
    "shop": "convenience"
  }
},
{
  "type": "node",
  "id": 5070485824,
  "lat": 18.7994633,
  "lon": 99.0178071,
  "tags": {
    "shop": "convenience"
  }
},
{
  "type": "node",
  "id": 5199167921,
  "lat": 18.7826174,
  "lon": 98.9953014,
  "tags": {
    "laundry_service": "yes",
    "self_service": "no",
    "shop": "laundry"
  }
},
{
  "type": "node",
  "id": 5265397323,
  "lat": 18.7564640,
  "lon": 98.9685216,
  "tags": {
    "addr:housenumber": "275",
    "addr:postcode": "50100",
    "alt_name": "HCMC",
    "amenity": "clinic",
    "contact:phone": "+6653804405",
    "contact:website": "http://www.healthcaremedicalclinic.com",
    "healthcare": "clinic",
    "healthcare:speciality": "general",
    "name": "Health Care Medical Clinic"
  }
},
{
  "type": "node",
  "id": 5271206221,
  "lat": 18.7691358,
  "lon": 98.9987492,
  "tags": {
    "name": "ชอยส์มินิสโตร์ ช้างคลาน",
    "shop": "convenience"
  }
},
{
  "type": "node",
  "id": 5316110822,
  "lat": 18.7842219,
  "lon": 98.9947594,
  "tags": {
    "laundry_service": "no",
    "name": "Selfservice Laundry",
    "self_service": "yes",
    "shop": "laundry"
  }
},
{
  "type": "node",
  "id": 5318896524,
  "lat": 18.7901915,
  "lon": 98.9639689,
  "tags": {
    "name": "Ton Payom Market",
    "name:en": "Outdoor Market",
    "shop": "supermarket"
  }
},
{
  "type": "node",
  "id": 5385681821,
  "lat": 18.7905785,
  "lon": 98.9900773,
  "tags": {
    "contact:phone": "+66 89 177 6457",
    "fee:conditional": "100/kg @ 24h; 150/kg @ 2h; 200 @ Pair Shoes",
    "opening_hours": "08:00-12:00,13:00-16:00",
    "shop": "laundry",
    "wheelchair": "limited"
  }
},
{
  "type": "node",
  "id": 5397440021,
  "lat": 18.7935929,
  "lon": 98.9854325,
  "tags": {
    "laundry_service": "no",
    "name:en": "Automatic laudry",
    "name:fr": "Laverie automatique",
    "opening_hours": "24/7",
    "self_service": "yes",
    "shop": "laundry"
  }
},
{
  "type": "node",
  "id": 5406305301,
  "lat": 18.7892627,
  "lon": 99.0255643,
  "tags": {
    "amenity": "pharmacy",
    "level": "1",
    "name": "Save Drug"
  }
},
{
  "type": "node",
  "id": 5425850221,
  "lat": 18.7892138,
  "lon": 98.9626486,
  "tags": {
    "amenity": "clinic",
    "name:en": "Sun Clinic Chiang Mai"
  }
},
{
  "type": "node",
  "id": 5437853221,
  "lat": 18.7912134,
  "lon": 98.9597649,
  "tags": {
    "amenity": "pharmacy",
    "name": "약국",
    "opening_hours": "Mo-Su 08:00-12:00"
  }
},
{
  "type": "node",
  "id": 5455786828,
  "lat": 18.7680003,
  "lon": 98.9837305,
  "tags": {
    "alt_name": "7-11",
    "brand": "7-Eleven",
    "brand:wikidata": "Q259340",
    "name": "7-Eleven",
    "shop": "convenience"
  }
},
{
  "type": "node",
  "id": 5466020683,
  "lat": 18.7981184,
  "lon": 98.9684781,
  "tags": {
    "brand": "7-Eleven",
    "brand:wikidata": "Q259340",
    "name": "7-Eleven",
    "shop": "convenience",
    "source": "survey"
  }
},
{
  "type": "node",
  "id": 5480665751,
  "lat": 18.7976826,
  "lon": 99.0099435,
  "tags": {
    "shop": "convenience"
  }
},
{
  "type": "node",
  "id": 5482188468,
  "lat": 18.7616347,
  "lon": 98.9957938,
  "tags": {
    "brand": "7-Eleven",
    "brand:wikidata": "Q259340",
    "name": "7-Eleven",
    "shop": "convenience",
    "source": "survey"
  }
},
{
  "type": "node",
  "id": 5519912022,
  "lat": 18.7948278,
  "lon": 98.9710412,
  "tags": {
    "check_date": "2024-02-10",
    "level": "0",
    "name": "แม็คโคร สาขาศิริมังคลาจารย์",
    "name:en": "Makro",
    "shop": "supermarket"
  }
},
{
  "type": "node",
  "id": 5582581121,
  "lat": 18.7928200,
  "lon": 98.9916072,
  "tags": {
    "name": "Wash Dry Iron",
    "shop": "laundry"
  }
},
{
  "type": "node",
  "id": 5608475221,
  "lat": 18.7833566,
  "lon": 98.9816566,
  "tags": {
    "name:en": "Urban Green",
    "opening_hours": "Mo-Sa 10:00-17:00",
    "shop": "convenience"
  }
},
{
  "type": "node",
  "id": 5650846061,
  "lat": 18.7732812,
  "lon": 98.9944976,
  "tags": {
    "addr:postcode": "50200",
    "addr:street": "ถนนประชาสัมพันธ์",
    "amenity": "clinic",
    "name": "ศูนย์อนามัยที่ 10",
    "name:en": "Medical Center 10",
    "opening_hours": "24/7"
  }
},
{
  "type": "node",
  "id": 5783761553,
  "lat": 18.7903963,
  "lon": 98.9919287,
  "tags": {
    "name:en": "laundry 24 hres",
    "shop": "laundry"
  }
},
{
  "type": "node",
  "id": 5783761753,
  "lat": 18.7879222,
  "lon": 98.9906791,
  "tags": {
    "name:en": "flea market Friday",
    "shop": "convenience",
    "wheelchair": "limited"
  }
},
{
  "type": "node",
  "id": 5865421938,
  "lat": 18.7772311,
  "lon": 98.9979503,
  "tags": {
    "description": "Self-service, coin operated laundry",
    "name": "Coin operated laundry",
    "shop": "laundry",
    "source": "local knowledge",
    "wheelchair": "no"
  }
},
{
  "type": "node",
  "id": 5894349315,
  "lat": 18.7625100,
  "lon": 98.9978480,
  "tags": {
    "laundry_service": "no",
    "payment:coins": "yes",
    "payment:notes": "no",
    "self_service": "yes",
    "shop": "laundry"
  }
},
{
  "type": "node",
  "id": 5923690585,
  "lat": 18.8042602,
  "lon": 98.9598002,
  "tags": {
    "name:en": "Mini Big C",
    "shop": "convenience"
  }
},
{
  "type": "node",
  "id": 5989927476,
  "lat": 18.7833133,
  "lon": 98.9546927,
  "tags": {
    "name": "7-Eleven",
    "opening_hours": "24/7",
    "shop": "convenience"
  }
},
{
  "type": "node",
  "id": 6004801297,
  "lat": 18.7821311,
  "lon": 98.9539839,
  "tags": {
    "shop": "convenience"
  }
},
{
  "type": "node",
  "id": 6057361186,
  "lat": 18.8096694,
  "lon": 98.9632093,
  "tags": {
    "amenity": "pharmacy"
  }
},
{
  "type": "node",
  "id": 6065304152,
  "lat": 18.7848515,
  "lon": 98.9846499,
  "tags": {
    "charge": "40-50 THB/kg",
    "shop": "laundry"
  }
},
{
  "type": "node",
  "id": 6065465985,
  "lat": 18.7706744,
  "lon": 98.9853011,
  "tags": {
    "name": "lotus market",
    "shop": "supermarket"
  }
},
{
  "type": "node",
  "id": 6065466185,
  "lat": 18.7667298,
  "lon": 98.9834023,
  "tags": {
    "name:de": "Wäscherei",
    "shop": "laundry"
  }
},
{
  "type": "node",
  "id": 6092778486,
  "lat": 18.7730077,
  "lon": 98.9996532,
  "tags": {
    "shop": "laundry"
  }
},
{
  "type": "node",
  "id": 6092998785,
  "lat": 18.7812303,
  "lon": 98.9968132,
  "tags": {
    "laundry_service": "yes",
    "opening_hours": "Mo-Su 07:00-21:00",
    "phone": "0866560156",
    "self_service": "no",
    "shop": "laundry"
  }
},
{
  "type": "node",
  "id": 6102185886,
  "lat": 18.7952966,
  "lon": 98.9983572,
  "tags": {
    "name:en": "Supermarket",
    "name:ja": "ムアンマイ市場",
    "shop": "supermarket"
  }
},
{
  "type": "node",
  "id": 6110434688,
  "lat": 18.7909341,
  "lon": 98.9937952,
  "tags": {
    "name": "Otteri laundry",
    "self_service": "yes",
    "shop": "laundry"
  }
},
{
  "type": "node",
  "id": 6114288285,
  "lat": 18.8072858,
  "lon": 99.0180607,
  "tags": {
    "name": "セントラル·フェスティバル",
    "shop": "supermarket"
  }
},
{
  "type": "node",
  "id": 6117383885,
  "lat": 18.7843293,
  "lon": 98.9903607,
  "tags": {
    "air_conditioning": "yes",
    "airconditioned": "yes",
    "brand": "7-Eleven",
    "brand:wikidata": "Q259340",
    "check_date": "2023-05-01",
    "level": "0",
    "name": "7-Eleven",
    "payment:credit_cards": "yes",
    "payment:debit_cards": "yes",
    "payment:mastercard": "yes",
    "payment:nets": "yes",
    "payment:visa": "yes",
    "shop": "convenience",
    "wheelchair": "limited"
  }
},
{
  "type": "node",
  "id": 6205218354,
  "lat": 18.7940387,
  "lon": 98.9931198,
  "tags": {
    "addr:housenumber": "307",
    "shop": "convenience"
  }
},
{
  "type": "node",
  "id": 6250975985,
  "lat": 18.7818029,
  "lon": 98.9888526,
  "tags": {
    "amenity": "pharmacy",
    "name:en": "Pharmacy",
    "name:fr": "Pharmacie"
  }
},
{
  "type": "node",
  "id": 6255529250,
  "lat": 18.8085074,
  "lon": 98.9548476,
  "tags": {
    "name": "7-Eleven",
    "shop": "convenience"
  }
},
{
  "type": "node",
  "id": 6261700911,
  "lat": 18.7738461,
  "lon": 98.9897271,
  "tags": {
    "contact:phone": "+66875256111",
    "shop": "laundry"
  }
},