{
  "version": 0.6,
  "generator": "Overpass API 0.7.62.11 87bfad18",
  "osm3s": {
    "timestamp_osm_base": "2026-05-28T18:25:46Z",
    "copyright": "The data included in this document is from www.openstreetmap.org. The data is made available under ODbL."
  },
  "elements": [

{
  "type": "node",
  "id": 489789755,
  "lat": 38.7482514,
  "lon": -9.1360807,
  "tags": {
    "addr:housenumber": "3-B",
    "addr:postcode": "1700-307 Alvalade",
    "addr:street": "Rua Moura Girão",
    "amenity": "pharmacy",
    "name": "Farmácia Celta"
  }
},
{
  "type": "node",
  "id": 1180403540,
  "lat": 38.7536355,
  "lon": -9.1418300,
  "tags": {
    "addr:city": "Lisboa",
    "addr:housenumber": "21 C",
    "addr:postcode": "1700-231",
    "addr:street": "Avenida da Igreja",
    "amenity": "pharmacy",
    "contact:email": "cartaxo.lsb@farmalink.pt",
    "dispensing": "yes",
    "healthcare": "pharmacy",
    "name": "Farmácia Cartaxo",
    "opening_hours": "Mo-Fr 08:00-21:00; Sa 09:00-21:00; Su 09:00-20:00",
    "phone": "218497958",
    "website": "https://www.bairrodasaude.pt/",
    "wheelchair": "yes"
  }
},
{
  "type": "node",
  "id": 1180403544,
  "lat": 38.7531651,
  "lon": -9.1432623,
  "tags": {
    "addr:city": "Lisboa",
    "addr:housenumber": "31C",
    "addr:postcode": "1700-232",
    "addr:street": "Avenida da Igreja",
    "amenity": "pharmacy",
    "contact:email": "f.sanex@gmail.com",
    "contact:phone": "+351 218 497 505",
    "healthcare": "pharmacy",
    "name": "Farmácia Sanex",
    "opening_hours": "Mo-Fr 09:00-21:00; PH,Sa,Su 09:00-20:00",
    "wheelchair": "yes"
  }
},
{
  "type": "node",
  "id": 1180403546,
  "lat": 38.7579006,
  "lon": -9.1404695,
  "tags": {
    "addr:housenumber": "66 A",
    "addr:postcode": "1700-338 São João de Brito",
    "addr:street": "Avenida Rio de Janeiro",
    "amenity": "pharmacy",
    "contact:email": "fprogressoalvalade@gmail.com",
    "contact:phone": "+351 218 482 368",
    "contact:website": "http://www.grupoprogressosaude.net/farmcia-brislia",
    "dispensing": "yes",
    "healthcare": "pharmacy",
    "name": "Farmácia Brisália",
    "wheelchair": "no"
  }
},
{
  "type": "node",
  "id": 1180411833,
  "lat": 38.7457211,
  "lon": -9.1446818,
  "tags": {
    "amenity": "clinic",
    "healthcare": "clinic"
  }
},
{
  "type": "node",
  "id": 1180883954,
  "lat": 38.7474585,
  "lon": -9.1412398,
  "tags": {
    "addr:housenumber": "53 D",
    "addr:postcode": "1700-342 Alvalade",
    "addr:street": "Avenida de Roma",
    "amenity": "pharmacy",
    "contact:email": "farmacia.belo@gmail.com",
    "contact:phone": "+351 217 976 314",
    "contact:website": "https://www.facebook.com/farmaciabelo",
    "name": "Farmácia Belo"
  }
},
{
  "type": "node",
  "id": 1189485655,
  "lat": 38.7277275,
  "lon": -9.1269084,
  "tags": {
    "addr:city": "Lisboa",
    "addr:housenumber": "2",
    "addr:postcode": "1170-105",
    "addr:street": "Avenida Coronel Eduardo Galhardo",
    "branch": "Lisboa - Coronel Galhardo",
    "brand": "Lidl",
    "brand:wikidata": "Q151954",
    "brand:wikipedia": "pt:Lidl",
    "contact:facebook": "lidlportugal",
    "contact:instagram": "lidlportugal",
    "contact:linkedin": "https://www.linkedin.com/company/lidl-portugal",
    "contact:phone": "+351 210 207 000",
    "contact:tiktok": "lidl.portugal",
    "contact:youtube": "https://www.youtube.com/user/LidlPortugal",
    "name": "Lidl",
    "name:fa": "لیدل",
    "opening_hours": "Mo-Su 08:00-21:30",
    "ref": "PT00148",
    "shop": "supermarket",
    "source:contact": "website",
    "source:opening_hours": "website",
    "website": "https://www.lidl.pt/s/pt-PT/pesquisa-de-loja/lisboa/avenida-cor-e-galhardo-2/"
  }
},
{
  "type": "node",
  "id": 1189503942,
  "lat": 38.7349205,
  "lon": -9.1350743,
  "tags": {
    "check_date": "2025-10-24",
    "name": "MistMarkt",
    "shop": "convenience"
  }
},
{
  "type": "node",
  "id": 1212628306,
  "lat": 38.7340622,
  "lon": -9.1311537,
  "tags": {
    "addr:housenumber": "46 B;46 C",
    "addr:postcode": "1900-140",
    "addr:street": "Rua Carvalho Araújo",
    "amenity": "pharmacy",
    "contact:phone": "+351 218 141 708",
    "dispensing": "yes",
    "name": "Farmácia Alcalis",
    "opening_hours": "Mo-Fr 08:45-13:30,14:30-20:00; Sa 09:00-13:00"
  }
},
{
  "type": "node",
  "id": 1212671085,
  "lat": 38.7422780,
  "lon": -9.1383648,
  "tags": {
    "addr:housenumber": "7-B",
    "addr:postcode": "1000-260 São João de Deus",
    "addr:street": "Avenida de Roma",
    "amenity": "pharmacy",
    "check_date:opening_hours": "2023-01-10",
    "contact:email": "farmacialgarvelisboa@gmail.com",
    "contact:phone": "+351 218 401 478",
    "contact:website": "http://farmaciaalgarve.pt/pt",
    "dispensing": "yes",
    "healthcare": "pharmacy",
    "name": "Farmácia Algarve",
    "opening_hours": "Mo-Su 09:00-24:00"
  }
},
{
  "type": "node",
  "id": 1212671087,
  "lat": 38.7573157,
  "lon": -9.1221992,
  "tags": {
    "addr:housenumber": "Lote 248, Loja 92",
    "addr:postcode": "1950-172",
    "addr:street": "Rua Luís Cristino da Silva",
    "amenity": "pharmacy",
    "contact:email": "farmacia.almeida.vaz@farmaciasholon.pt",
    "contact:phone": "+351 218 595 673",
    "contact:website": "http://www.grupo-holon.pt/",
    "dispensing": "yes",
    "healthcare": "pharmacy",
    "name": "Farmácia Almeida Vaz",
    "note": "Closed"
  }
},
{
  "type": "node",
  "id": 1212671091,
  "lat": 38.7328055,
  "lon": -9.1344762,
  "tags": {
    "addr:city": "Lisboa",
    "addr:door": "145-B;145-C",
    "addr:housenumber": "145-B/C",
    "addr:postcode": "1150-015",
    "addr:street": "São Jorge de Arroios",
    "amenity": "pharmacy",
    "contact:email": "dlfarmaciaalianca@gmail.com",
    "contact:phone": "+351 213 570 487",
    "contact:website": "http://farmaciaalianca.com/pt",
    "dispensing": "yes",
    "healthcare": "pharmacy",
    "name": "Farmácia Aliança",
    "opening_hours": "Mo-Fr 08:30-20:00; Sa 09:00-20:00",
    "operator": "António Silveira Lda.",
    "phone": "+351 213 570 487"
  }
},
{
  "type": "node",
  "id": 1212671093,
  "lat": 38.7326614,
  "lon": -9.1308159,
  "tags": {
    "addr:city": "Lisboa",
    "addr:housenumber": "91-D",
    "addr:postcode": "1900-342",
    "addr:street": "Rua Morais Soares",
    "amenity": "pharmacy",
    "contact:email": "f.alves.da.graça@gmail.com",
    "contact:phone": "+351 218 144 350",
    "contact:website": "http://farmacia-lopes-graca.pt/",
    "dispensing": "yes",
    "healthcare": "pharmacy",
    "name": "Farmácia Alves da Graça",
    "opening_hours": "Mo-Fr 09:00-20:00; Sa 09:00-19:00; Su 09:00-13:00,14:00-18:00"
  }
},
{
  "type": "node",
  "id": 1212694258,
  "lat": 38.7657048,
  "lon": -9.1160613,
  "tags": {
    "addr:city": "Santa Maria dos Olivais",
    "addr:housenumber": "Lote 199",
    "addr:postcode": "1800-100",
    "addr:street": "Praça Cidade do Luso",
    "amenity": "pharmacy",
    "contact:phone": "+351 218 513 610",
    "dispensing": "yes",
    "healthcare": "pharmacy",
    "name": "Farmácia Antunes Rosas",
    "opening_hours": "seg-sex 9:00-19:30 sab 9:00-13:00 dom encerrado",
    "phone": "+351 218 513 610"
  }
},
{
  "type": "node",
  "id": 1212710134,
  "lat": 38.7472392,
  "lon": -9.1043226,
  "tags": {
    "addr:housenumber": "79-B",
    "addr:postcode": "1950-266",
    "addr:street": "Rua do Vale Formoso de Cima",
    "amenity": "pharmacy",
    "contact:email": "farmaciabg@gmail.com",
    "contact:phone": "+351 218 595 180",
    "dispensing": "yes",
    "healthcare": "pharmacy",
    "name": "Farmácia Barros Gouveia",
    "opening_hours": "Sa 09:00-13:00; Mo-Fr 09:00-19:00"
  }
},
{
  "type": "node",
  "id": 1212710162,
  "lat": 38.7486680,
  "lon": -9.1162028,
  "tags": {
    "addr:housenumber": "Lote 12, Loja C",
    "addr:postcode": "1950-442",
    "addr:street": "Avenida República da Bulgária",
    "amenity": "pharmacy",
    "contact:email": "farmaciadabelavista@gmail.com",
    "contact:phone": "+351 218 682 241",
    "contact:website": "www.farmaciadabelavista.com",
    "dispensing": "no",
    "healthcare": "pharmacy",
    "name": "Farmácia Bela Vista"
  }
},
{
  "type": "node",
  "id": 1213221679,
  "lat": 38.7285453,
  "lon": -9.1091671,
  "tags": {
    "addr:city": "Beato",
    "addr:housenumber": "29",
    "addr:postcode": "1900-193 Beato",
    "addr:street": "Calçada de Dom Gastão",
    "addr:unit": "B",
    "amenity": "pharmacy",
    "check_date:opening_hours": "2024-10-13",
    "contact:email": "farmacia.conceicao@grupo-holon.pt",
    "contact:phone": "+351 218 626 060",
    "contact:website": "http://www.grupo-holon.pt",
    "dispensing": "yes",
    "healthcare": "pharmacy",
    "name": "Farmácia Conceição",
    "official_name": "Farmácia Conceição, Lda.",
    "opening_hours:signed": "no"
  }
},
{
  "type": "node",
  "id": 1213221721,
  "lat": 38.7411658,
  "lon": -9.1337497,
  "tags": {
    "addr:city": "Lisboa",
    "addr:housenumber": "2A",
    "addr:postcode": "1000-228 São João de Deus",
    "addr:street": "Avenida de Paris",
    "amenity": "pharmacy",
    "amenity_1": "healthcare",
    "check_date": "2024-05-03",
    "contact:email": "conchaze@pt.com",
    "contact:phone": "+351 218 480 820",
    "dispensing": "yes",
    "healthcare": "pharmacy",
    "name": "Farmácia Central do Areeiro",
    "opening_hours": "Mo-Fr 08:30-22:00; Sa-Su 09:00-22:00"
  }
},
{
  "type": "node",
  "id": 1213293530,
  "lat": 38.7356713,
  "lon": -9.1323609,
  "tags": {
    "addr:housenumber": "32-B-C",
    "addr:postcode": "1900-069 São Jorge de Arroios",
    "addr:street": "Rua Angela Pinto",
    "amenity": "pharmacy",
    "dispensing": "no",
    "name": "Farmácia Corvo"
  }
},
{
  "type": "node",
  "id": 1213370006,
  "lat": 38.7418794,
  "lon": -9.1085716,
  "tags": {
    "addr:housenumber": "LT 35-36",
    "addr:postcode": "1950-363",
    "addr:street": "Rua Eduarda Lapa",
    "addr:suburb": "Bairro Marquês de Abrantes",
    "amenity": "pharmacy",
    "contact:phone": "+351 218 314 283",
    "contact:website": "https://www.facebook.com/Farmácia-de-Marvila-1499210477073961",
    "dispensing": "no",
    "healthcare": "pharmacy",
    "name": "Farmácia de Marvila"
  }
},
{
  "type": "node",
  "id": 1213461391,
  "lat": 38.7383590,
  "lon": -9.1329729,
  "tags": {
    "addr:housenumber": "101-B",
    "addr:postcode": "1900-119 Alto do Pina",
    "addr:street": "Rua Carlos Mardel",
    "amenity": "pharmacy",
    "contact:email": "geral@farmaesperanca.com",
    "contact:phone": "+351 218 482 868",
    "contact:website": "https://www.facebook.com/FarmaciaEsperancaLisboa",
    "dispensing": "yes",
    "healthcare": "pharmacy",
    "name": "Farmácia Esperança",
    "opening_hours": "Mo-Fr 08:00-20:00; Sa 09:00-13:00,14:00-18:00"
  }
},
{
  "type": "node",
  "id": 1213461399,
  "lat": 38.7281801,
  "lon": -9.1221767,
  "tags": {
    "amenity": "pharmacy",
    "dispensing": "no",
    "healthcare": "pharmacy"
  }
},
{
  "type": "node",
  "id": 1213461403,
  "lat": 38.7687091,
  "lon": -9.1085109,
  "tags": {
    "addr:city": "Lisboa",
    "addr:housenumber": "19",
    "addr:postcode": "1800-021 Santa Maria dos Olivais",
    "addr:street": "Rua Alves Gouveia",
    "amenity": "pharmacy",
    "dispensing": "no",
    "healthcare": "pharmacy",
    "name": "Farmácia dos Olivais"
  }
},
{
  "type": "node",
  "id": 1213529439,
  "lat": 38.7343153,
  "lon": -9.1285575,
  "tags": {
    "addr:housenumber": "104",
    "addr:postcode": "1900-094 São João",
    "addr:street": "Rua Barão de Sabrosa",
    "alt_name": "Farmácia Holon Barão de Sabrosa",
    "amenity": "pharmacy",
    "dispensing": "yes",
    "name": "Farmácia Eusil"
  }
},
{
  "type": "node",
  "id": 1213529453,
  "lat": 38.7601443,
  "lon": -9.0958562,
  "tags": {
    "addr:city": "Lisboa",
    "addr:housenumber": "5A",
    "addr:postcode": "1990-221",
    "addr:street": "Largo dos Arautos",
    "addr:unit": "2.06.05",
    "amenity": "pharmacy",
    "contact:email": "encomendas.farmaciaexposul@gmail.com",
    "contact:phone": "+351 218 967 033",
    "contact:website": "https://www.farmaciasportuguesas.pt/catalogo/ficha-farmacia?code=11266",
    "dispensing": "no",
    "healthcare": "pharmacy",
    "name": "Farmácia Exposul",
    "opening_hours": "Mo-Su 09:00-24:00",
    "wheelchair": "yes"
  }
},
{
  "type": "node",
  "id": 1213563555,
  "lat": 38.7430676,
  "lon": -9.1338197,
  "tags": {
    "addr:city": "Lisboa",
    "addr:housenumber": "5-A",
    "addr:postcode": "1000-222 São João de Deus",
    "addr:street": "Avenida Padre Manuel da Nóbrega",
    "amenity": "pharmacy",
    "contact:phone": "+351 218 460 080",
    "contact:website": "https://pt-pt.facebook.com/pages/Farm%C3%A1cia-Garantia/1502680699964158",
    "dispensing": "yes",
    "healthcare": "pharmacy",
    "name": "Farmácia Garantia",
    "opening_hours": "Mo-Fr 08:00-23:00; Sa-Su 09:00-20:00"
  }
},
{
  "type": "node",
  "id": 1213563561,
  "lat": 38.7459929,
  "lon": -9.1015829,
  "tags": {
    "addr:housenumber": "23-A",
    "addr:postcode": "1950-278",
    "addr:street": "Rua do Vale Formoso",
    "amenity": "pharmacy",
    "dispensing": "no",
    "healthcare": "pharmacy",
    "name": "Farmácia Freitas"
  }
},
{
  "type": "node",
  "id": 1213598914,
  "lat": 38.7661986,
  "lon": -9.1209421,
  "tags": {
    "addr:housenumber": "Lote 43, Loja A",
    "addr:postcode": "1800-131 Santa Maria dos Olivais",
    "addr:street": "Rua Cidade de Vila Cabral",
    "amenity": "pharmacy",
    "contact:email": "farmacia.higiene.olivais@grupo-holon.pt",
    "contact:phone": "+351 218 510 026",
    "contact:website": "http://www.grupo-holon.pt/",
    "dispensing": "yes",
    "healthcare": "pharmacy",
    "name": "Farmácia Higiene Olivais"
  }
},
{
  "type": "node",
  "id": 1215485958,
  "lat": 38.7376589,
  "lon": -9.1277328,
  "tags": {
    "addr:housenumber": "7 B",
    "addr:postcode": "1900-090 Alto do Pina",
    "addr:street": "Rua Cristóvão Falcão",
    "amenity": "pharmacy",
    "contact:email": "iberiafarmacia@gmail.com",
    "contact:phone": "+351 218 488 277",
    "contact:website": "https://www.facebook.com/farmaciaiberia",
    "dispensing": "yes",
    "name": "Farmácia Ibéria",
    "opening_hours": "PH,Mo-Su 08:00-24:00",
    "wheelchair": "yes"
  }
},
{
  "type": "node",
  "id": 1215488058,
  "lat": 38.7398058,
  "lon": -9.1362684,
  "tags": {
    "addr:housenumber": "30 B",
    "addr:postcode": "1000-167",
    "addr:street": "Avenida Guerra Junqueiro",
    "amenity": "pharmacy",
    "contact:email": "farmaciaimperial.lx@gmail.com",
    "contact:phone": "+351 218 486 860",
    "contact:website": "http://www.grupoprogressosaude.net/farmcia-imperial",
    "dispensing": "yes",
    "name": "Farmácia Imperial",
    "opening_hours": "Mo-Fr 08:30-20:30; Sa 09:00-19:30; Su,PH 10:00-19:30"
  }
},
{
  "type": "node",
  "id": 1237566224,
  "lat": 38.7384807,
  "lon": -9.1424352,
  "tags": {
    "addr:housenumber": "9-C",
    "addr:postcode": "1000-134",
    "addr:street": "Nossa Senhora de Fátima",
    "amenity": "pharmacy",
    "contact:phone": "+351 217 970 324",
    "dispensing": "no",
    "name": "Farmácia Leonel Pinheiro"
  }
},
{
  "type": "node",
  "id": 1237566235,
  "lat": 38.7425696,
  "lon": -9.1366667,
  "tags": {
    "addr:housenumber": "16-A",
    "addr:postcode": "1000-302 São João de Deus",
    "addr:street": "Avenida João XXI",
    "amenity": "pharmacy",
    "healthcare": "pharmacy",
    "name": "Farmácia João XXI",
    "opening_hours": "Mo-Sa 09:00-20:00;Su 10:00-20:00"
  }
},
{
  "type": "node",
  "id": 1237566239,
  "lat": 38.7437061,
  "lon": -9.1387268,
  "tags": {
    "addr:housenumber": "18-A",
    "addr:postcode": "1000-265 São João de Deus",
    "addr:street": "Avenida de Roma",
    "amenity": "pharmacy",
    "contact:email": "flusitana@gmail.com",
    "contact:phone": "+351 218 485 443",
    "contact:website": "https://www.facebook.com/farmacialusitana.lisboa",
    "dispensing": "no",
    "name": "Farmácia Lusitana",
    "opening_hours": "Mo-Fr 09:00-20:00; Sa 09:00-19:00"
  }
},
{
  "type": "node",
  "id": 1237566262,
  "lat": 38.7358734,
  "lon": -9.1341716,
  "tags": {
    "addr:housenumber": "199-A;199-B",
    "addr:postcode": "1000-048 São Jorge de Arroios",
    "addr:street": "Avenida Almirante Reis",
    "amenity": "pharmacy",
    "check_date:opening_hours": "2025-12-02",
    "contact:email": "farmacialusa.lx@gmail.com",
    "contact:phone": "+351 218 475 269",
    "dispensing": "yes",
    "name": "Farmácia Lusa",
    "opening_hours": "Mo-Fr 09:00-19:00; Sa 09:00-13:00"
  }
},
{
  "type": "node",
  "id": 1237566265,
  "lat": 38.7308337,
  "lon": -9.1098847,
  "tags": {
    "addr:housenumber": "15-B",
    "addr:postcode": "1900-325 Beato",
    "addr:street": "Rua da Margem",
    "alt_name": "Farmácia Madre de Deus",
    "amenity": "pharmacy",
    "contact:email": "farmaciamadredeus@gmail.com",
    "contact:phone": "+351 218 619 344",
    "dispensing": "yes",
    "healthcare": "pharmacy",
    "name": "Farmácia Madre Deus"
  }
},
{
  "type": "node",
  "id": 1239143785,
  "lat": 38.7377113,
  "lon": -9.1234946,
  "tags": {
    "addr:housenumber": "140 A;140 B",
    "addr:postcode": "1900-374 Beato",
    "addr:street": "Calçada da Picheleira",
    "amenity": "pharmacy",
    "contact:email": "isamarluz@@hotmail.com",
    "contact:phone": "+351 218 437 550",
    "dispensing": "yes",
    "healthcare": "pharmacy",
    "name": "Farmácia Marluz",
    "opening_hours": "Mo-Th 09:00-19:00; Fr 09:00-20:00; Sa 09:00-13:00",
    "wheelchair": "limited"
  }
},
{
  "type": "node",
  "id": 1239143801,
  "lat": 38.7559998,
  "lon": -9.1452927,
  "tags": {
    "addr:housenumber": "104-A R/C",
    "addr:postcode": "1700-346 São João de Brito",
    "addr:street": "Avenida de Roma",
    "amenity": "pharmacy",
    "contact:email": "farmaciamarbel@gmail.com",
    "contact:phone": "+351 217 993 770",
    "contact:website": "https://pt-pt.facebook.com/farmaciamarbel/",
    "dispensing": "yes",
    "healthcare": "pharmacy",
    "name": "Farmácia Marbel",
    "wheelchair": "yes"
  }
},
{
  "type": "node",
  "id": 1239241430,
  "lat": 38.7524215,
  "lon": -9.1494339,
  "tags": {
    "addr:city": "Lisboa",
    "addr:country": "PT",
    "addr:housenumber": "152-A",
    "addr:postcode": "1700-094",
    "addr:street": "Campo Grande",
    "amenity": "pharmacy",
    "contact:email": "farmacianeoterapia@gmail.com",
    "contact:phone": "+351 217 974 682",
    "contact:website": "https://www.facebook.com/Farm%C3%A1cia-Campo-Grande-214358862096039/",
    "dispensing": "yes",
    "name": "Farmácia Campo Grande"
  }
},
{
  "type": "node",
  "id": 1239241434,
  "lat": 38.7432182,
  "lon": -9.1441654,
  "tags": {
    "addr:housenumber": "36-B;36-C",
    "addr:postcode": "1000-080 São João de Deus",
    "addr:street": "Largo do Campo Pequeno",
    "amenity": "pharmacy",
    "contact:phone": "+351 217 970 776",
    "contact:website": "https://www.facebook.com/Farmacia-Miranda-117039851789632/",
    "dispensing": "yes",
    "healthcare": "pharmacy",
    "name": "Farmácia Miranda"
  }
},
{
  "type": "node",
  "id": 1240465061,
  "lat": 38.7634721,
  "lon": -9.1201880,
  "tags": {
    "addr:housename": "Edifício Paris",
    "addr:housenumber": "Lote 534 A",
    "addr:postcode": "1800-105 Santa Maria dos Olivais",
    "addr:street": "Rua Cidade Nampula",
    "amenity": "pharmacy",
    "contact:email": "reisoliveirafarma@gmail.com",
    "contact:fax": "+351 218 550 681",
    "contact:phone": "+351 218 550 680;+351 918 782 570",
    "dispensing": "yes",
    "fax": "+351 218 550 681",
    "healthcare": "pharmacy",
    "name": "Farmácia Reis Oliveira",
    "opening_hours": "Mo-Fr 8:30-19:30, Sa 9:30-13:30, Su 9:30-13:30",
    "phone": "+351 218 550 680;+351 918 782 570"
  }
},
{
  "type": "node",
  "id": 1240465066,
  "lat": 38.7541550,
  "lon": -9.1402852,
  "tags": {
    "addr:city": "Lisboa",
    "addr:housenumber": "9-D;9-E",
    "addr:postcode": "1700-230 São João de Brito",
    "addr:street": "Avenida da Igreja",
    "amenity": "pharmacy",
    "contact:email": "zil.lisboa@gmail.com",
    "contact:phone": "+351 218 491 780",
    "dispensing": "yes",
    "healthcare": "pharmacy",
    "name": "Farmácia Zil",
    "opening_hours": "Mo-Su 09:00-20:00",
    "website": "https://bairrodasaude.pt/",
    "wheelchair": "limited"
  }
},
{
  "type": "node",
  "id": 1240465069,
  "lat": 38.7486484,
  "lon": -9.1474451,
  "tags": {
    "addr:housenumber": "14-B2",
    "addr:postcode": "1700-180 Campo Grande",
    "addr:street": "Avenida dos Estados Unidos da América",
    "amenity": "pharmacy",
    "check_date": "2022-09-07",
    "contact:email": "farmacia.nova.iorque@grupo-holon.pt",
    "contact:phone": "+351 217 960 658",
    "contact:website": "http://www.grupo-holon.pt/",
    "dispensing": "yes",
    "healthcare": "pharmacy",
    "name": "Farmácia Nova Iorque",
    "wheelchair": "no"
  }
},
{
  "type": "node",
  "id": 1240465080,
  "lat": 38.7330475,
  "lon": -9.1322639,
  "tags": {
    "addr:housenumber": "109, 111 e 113",
    "addr:postcode": "1900-344 São Jorge de Arroios",
    "addr:street": "Rua Morais Soares",
    "amenity": "pharmacy",
    "contact:email": "farmacia.holon.moraissoares@grupo-holon.pt",
    "contact:phone": "+351 218 150 170",
    "contact:website": "http://www.grupo-holon.pt/",
    "description": "Antiga Farmácia holon Morais Soares, que se mudou para o endereço Rua Morais Soares 116 A e 116 B. (aviso na porta)",
    "dispensing": "yes",
    "healthcare": "pharmacy",
    "name": "Farmácia Holon"
  }
},
{
  "type": "node",
  "id": 1240465088,
  "lat": 38.7501255,
  "lon": -9.1372166,
  "tags": {
    "addr:housenumber": "4-C",
    "addr:postcode": "1700-334 São João de Brito",
    "addr:street": "Avenida do Rio de Janeiro",
    "amenity": "pharmacy",
    "contact:email": "fprogressoriodejaneiro@gmail.com",
    "contact:phone": "+351 218 400 198",
    "contact:website": "http://www.grupoprogressosaude.net/farmcia-rio-de-janeiro",
    "dispensing": "yes",
    "healthcare": "pharmacy",
    "name": "Farmácia Rio de Janeiro"
  }
},
{
  "type": "node",
  "id": 1240465091,
  "lat": 38.7323639,
  "lon": -9.1287515,
  "tags": {
    "addr:housenumber": "56-C",
    "addr:postcode": "1900-348 São João",
    "addr:street": "Rua Morais Soares",
    "amenity": "pharmacy",
    "contact:email": "farmacia_saojoao@sapo.pt",
    "contact:phone": "+351 218 147 708",
    "contact:website": "https://www.facebook.com/Farmácia-São-João-1059452754076583",
    "dispensing": "yes",
    "healthcare": "pharmacy",
    "name": "Farmácia São João"
  }
},
{
  "type": "node",
  "id": 1240465092,
  "lat": 38.7422274,
  "lon": -9.1365770,
  "tags": {
    "addr:housenumber": "13-A",
    "addr:postcode": "1000-298 São João de Deus",
    "addr:street": "Avenida João XXI",
    "amenity": "pharmacy",
    "contact:email": "farmaciaonilda@gmail.com",
    "contact:phone": "+351 218 486 848",
    "contact:website": "https://www.facebook.com/farmaciaonilda",
    "dispensing": "yes",
    "name": "Farmácia Onilda"
  }
},
{
  "type": "node",
  "id": 1240465093,
  "lat": 38.7719679,
  "lon": -9.1138838,
  "tags": {
    "addr:city": "Lisboa",
    "addr:housenumber": "5A-B",
    "addr:postcode": "1800-053 Santa Maria dos Olivais",
    "addr:street": "Praça das Casas Novas",
    "amenity": "pharmacy",
    "check_date:opening_hours": "2024-12-29",
    "dispensing": "no",
    "healthcare": "pharmacy",
    "name": "Farmácia Zira",
    "opening_hours": "Mo-Fr 09:00-19:00; Sa 09:00-13:00"
  }
},
{
  "type": "node",
  "id": 1240465099,
  "lat": 38.7466116,
  "lon": -9.1124518,
  "tags": {
    "addr:city": "Lisboa",
    "addr:housenumber": "B",
    "addr:postcode": "1950-157",
    "addr:street": "Avenida João Paulo II",
    "addr:unit": "531",
    "amenity": "pharmacy",
    "contact:email": "farmacia.serejo@grupo-holon.pt",
    "contact:phone": "+351 218 592 611",
    "contact:website": "http://www.grupo-holon.pt/",
    "dispensing": "yes",
    "healthcare": "pharmacy",
    "name": "Farmácia Serejo",
    "official_name": "Farmácia Serejo, Lda."
  }
},
{
  "type": "node",
  "id": 1240465100,
  "lat": 38.7752062,
  "lon": -9.0964531,
  "tags": {
    "addr:housenumber": "8A R/C, Loja S5;8B R/C Loja S7",
    "addr:postcode": "1900-261 Santa Maria dos Olivais",
    "addr:street": "Avenida da Boa Esperança",
    "amenity": "pharmacy",
    "contact:email": "orientalfarmacia@gmail.com",
    "contact:phone": "+351 213 545 079",
    "contact:website": "http://www.farmaciabarral.com/farmacia-oriental",
    "dispensing": "no",
    "healthcare": "pharmacy",
    "name": "Farmácia Oriental de Lisboa",
    "wheelchair": "yes"
  }
},
{
  "type": "node",
  "id": 1240465103,
  "lat": 38.7429014,
  "lon": -9.1116069,
  "tags": {
    "addr:housenumber": "14 A",
    "addr:postcode": "1950-230",
    "addr:street": "Avenida Paulo VI",
    "addr:unit": "Loja 3",
    "amenity": "pharmacy",
    "contact:email": "diogomroliveira@netcabo.pt",
    "contact:phone": "+351 218 394 314",
    "dispensing": "no",
    "healthcare": "pharmacy",
    "name": "Farmácia Santo António"
  }
},
{
  "type": "node",
  "id": 1240465108,
  "lat": 38.7577738,
  "lon": -9.1379387,
  "tags": {
    "addr:housenumber": "5-A;5-B",
    "addr:postcode": "1700-322 São João de Brito",
    "addr:street": "Rua Reinaldo Ferreira",
    "amenity": "pharmacy",
    "contact:email": "farmaciaparis.fb@gmail.com",
    "contact:phone": "+351 218 490 131",
    "contact:website": "https://www.facebook.com/Farmácia-Paris-403995869673447",
    "dispensing": "yes",
    "healthcare": "pharmacy",
    "name": "Farmácia Paris",
    "wheelchair": "yes"
  }
},
{
  "type": "node",
  "id": 1240465118,
  "lat": 38.7552344,
  "lon": -9.1496159,
  "tags": {
    "addr:housenumber": "57-B",
    "addr:postcode": "1700-011 Campo Grande",
    "addr:street": "Rua Afonso Lopes Vieira",
    "amenity": "pharmacy",
    "contact:email": "farmaciapimpao@gmail.com",
    "contact:phone": "+351 217 965 262",
    "contact:website": "https://www.facebook.com/FarmaciaPimpao",
    "dispensing": "yes",
    "healthcare": "pharmacy",
    "name": "Farmácia Rainha Santa"
  }
},
{
  "type": "node",
  "id": 1240465119,
  "lat": 38.7731272,
  "lon": -9.0999615,
  "tags": {
    "addr:housenumber": "34",
    "addr:postcode": "1800-279 Santa Maria dos Olivais",
    "addr:street": "Estrada de Moscavide",
    "addr:unit": "A",
    "alt_name": "Farmácia S. Paulo",
    "amenity": "pharmacy",
    "contact:phone": "+351 218 510 711",
    "dispensing": "yes",
    "drive_through": "no",
    "healthcare": "pharmacy",
    "name": "Farmácia São Paulo",
    "opening_hours": "Mo-Fr 09:00-18:00; Sa 09:00-13:00"
  }
},
{
  "type": "node",
  "id": 1240465120,
  "lat": 38.7458450,
  "lon": -9.1376298,
  "tags": {
    "addr:housenumber": "1-A;1-B",
    "addr:postcode": "1700-313 Alvalade",
    "addr:street": "Rua Pedro Ivo",
    "amenity": "pharmacy",
    "contact:phone": "+351 218 485 140",
    "dispensing": "no",
    "name": "Farmácia São João de Deus"
  }
},
{
  "type": "node",
  "id": 1240465121,
  "lat": 38.7456012,
  "lon": -9.1188048,
  "tags": {
    "addr:housenumber": "39-B",
    "addr:postcode": "1950-354",
    "addr:street": "Avenida François Mitterrand",
    "amenity": "pharmacy",
    "contact:email": "farmaciapontesleite@gmail.com",
    "contact:phone": "+351 218 593 720",
    "contact:website": "https://www.facebook.com/Farmácia-Pontes-Leite-1403663666536145",
    "dispensing": "yes",
    "healthcare": "pharmacy",
    "name": "Farmácia Pontes Leite"
  }
},
{
  "type": "node",
  "id": 1240465123,
  "lat": 38.7511824,
  "lon": -9.1432263,
  "tags": {
    "addr:city": "Lisboa",
    "addr:country": "PT",
    "addr:housenumber": "85-B",
    "addr:place": "Campo Grande",
    "addr:postcode": "1700-344",
    "addr:street": "Avenida de Roma",
    "amenity": "pharmacy",
    "check_date": "2024-11-06",
    "contact:email": "farmaciaroma85b@gmail.com",
    "contact:phone": "+351 217 972 466",
    "contact:website": "https://www.facebook.com/farmaciaromalisboa/",
    "dispensing": "no",
    "healthcare": "pharmacy",
    "name": "Farmácia Roma",
    "opening_hours": "Fechado Permanentemente",
    "wheelchair": "limited"
  }
},
{
  "type": "node",
  "id": 1240465128,
  "lat": 38.7459229,
  "lon": -9.1437411,
  "tags": {
    "addr:city": "Lisboa",
    "addr:housenumber": "1",
    "addr:postcode": "1700-201",
    "addr:street": "Praça Francisco de Morais",
    "amenity": "pharmacy",
    "contact:phone": "+351 217 971 469",
    "dispensing": "yes",
    "healthcare": "pharmacy",
    "name": "Farmácia São Miguel"
  }
},
{
  "type": "node",
  "id": 1240465133,
  "lat": 38.7591642,
  "lon": -9.1077775,
  "tags": {
    "addr:city": "Lisboa",
    "addr:housenumber": "A",
    "addr:postcode": "1800-245",
    "addr:street": "Rua de Manhiça",
    "addr:unit": "469",
    "amenity": "pharmacy",
    "contact:email": "farmacia.nova.olivais@grupo-holon.pt",
    "contact:phone": "+351 218 516 402",
    "contact:website": "http://www.grupo-holon.pt/",
    "dispensing": "yes",
    "healthcare": "pharmacy",
    "name": "Farmácia Nova dos Olivais"
  }
},
{
  "type": "node",
  "id": 1240465137,
  "lat": 38.7390545,
  "lon": -9.1310397,
  "tags": {
    "addr:housenumber": "22-A",
    "addr:postcode": "1900-007 Alto do Pina",
    "addr:street": "Rua Abade Faria",
    "amenity": "pharmacy",
    "contact:email": "farmaciapaes@gmail.com",
    "contact:phone": "+351 218 483 965",
    "contact:website": "http://www.farmaciapaes.pt",
    "dispensing": "yes",
    "healthcare": "pharmacy",
    "name": "Farmácia Paes"
  }
},
{
  "type": "node",
  "id": 1240465148,
  "lat": 38.7543267,
  "lon": -9.1136184,
  "tags": {
    "addr:city": "Lisboa",
    "addr:housenumber": "42",
    "addr:place": "Marvila",
    "addr:postcode": "1950-002",
    "addr:street": "Rua Actriz Palmira Bastos",
    "amenity": "pharmacy",
    "contact:email": "farmacia.sacramento@mail.telepac.pt",
    "contact:phone": "+351 218 590 904",
    "dispensing": "yes",
    "healthcare": "pharmacy",
    "name": "Farmácia Sacramento",
    "official_name": "Farmácia Sacramento, Lda."
  }
},
{
  "type": "node",
  "id": 1301598442,
  "lat": 38.7627100,
  "lon": -9.1407608,
  "tags": {
    "shop": "convenience"
  }
},
{
  "type": "node",
  "id": 1301598470,
  "lat": 38.7634294,
  "lon": -9.1412651,
  "tags": {
    "shop": "convenience"
  }
},
{
  "type": "node",
  "id": 1301598480,
  "lat": 38.7692433,
  "lon": -9.1256922,
  "tags": {
    "shop": "convenience"
  }
},
{
  "type": "node",
  "id": 1305626752,
  "lat": 38.8087267,
  "lon": -9.0999555,
  "tags": {
    "amenity": "pharmacy",
    "healthcare": "pharmacy"
  }
},
{
  "type": "node",
  "id": 1375998893,
  "lat": 38.7718729,
  "lon": -9.0957604,
  "tags": {
    "addr:city": "Lisboa",
    "addr:country": "PT",
    "addr:housenumber": "65B",
    "addr:street": "Alameda dos Oceanos",
    "amenity": "pharmacy",
    "contact:email": "farmaciavascodagama@sapo.pt",
    "contact:phone": "+351 213 478 932",
    "contact:website": "https://www.facebook.com/FarmaciaVascoDaGama",
    "dispensing": "no",
    "drive_through": "no",
    "healthcare": "pharmacy",
    "name": "Farmácia Vasco da Gama",
    "phone": "+351218947000",
    "wheelchair": "yes"
  }
},
{
  "type": "node",
  "id": 1538899361,
  "lat": 38.7897773,
  "lon": -9.1219320,
  "tags": {
    "addr:street": "Rua de Moçambique",
    "amenity": "pharmacy",
    "drive_through": "no",
    "healthcare": "pharmacy",
    "name": "Farmácia Matos",
    "payment:cash": "yes",
    "payment:credit_cards": "yes",
    "payment:debit_cards": "yes"
  }
},
{
  "type": "node",
  "id": 1538899371,
  "lat": 38.7899856,
  "lon": -9.1213551,
  "tags": {
    "addr:city": "Loures",
    "addr:postcode": "2685-316",
    "branch": "Cabo Verde - Loures",
    "brand": "My Auchan",
    "brand:wikidata": "Q115800307",
    "brand:wikipedia": "pt:Auchan",
    "contact:email": "apoiocliente@auchan.pt",
    "contact:facebook": "AuchanPortugal",
    "contact:instagram": "auchan_pt",
    "contact:phone": "+351 210 403 270",
    "contact:tiktok": "auchan_pt",
    "contact:youtube": "https://www.youtube.com/channel/UC6FSI7tYO9ISV11U2PHBBYQ",
    "name": "My Auchan",
    "old_name": "Minipreço",
    "opening_hours": "Mo-Su 08:00-20:00",
    "ref": "B13",
    "shop": "convenience",
    "source:contact": "website",
    "source:opening_hours": "website",
    "website": "https://www.auchan.pt/pt/loja?StoreID=B13"
  }
},
{
  "type": "node",
  "id": 1538899380,
  "lat": 38.7906834,
  "lon": -9.1220367,
  "tags": {
    "addr:city": "Prior Velho",
    "addr:housenumber": "8",
    "addr:postcode": "2685-370",
    "addr:street": "Praceta de São Tomé",
    "branch": "Super do Prior",
    "brand": "Amanhecer",
    "brand:wikidata": "Q127510997",
    "contact:email": "superdoprior.3970@amanhecer.pt",
    "contact:facebook": "lojasamanhecer",
    "contact:instagram": "lojas.amanhecer",
    "name": "Amanhecer - Super do Prior",
    "ref": "3970",
    "shop": "supermarket",
    "source:contact": "website",
    "website": "https://amanhecer.pt/lojas/super-do-prior/"
  }
},
{
  "type": "node",
  "id": 1538899430,
  "lat": 38.7900274,
  "lon": -9.1208830,
  "tags": {
    "amenity": "clinic",
    "healthcare": "clinic",
    "name": "Posto de Saúde"
  }
},
{
  "type": "node",
  "id": 1588881165,
  "lat": 38.7932751,
  "lon": -9.1184576,
  "tags": {
    "shop": "laundry"
  }
},
{
  "type": "node",
  "id": 1588881317,
  "lat": 38.7925309,
  "lon": -9.1200535,
  "tags": {
    "shop": "laundry"
  }
},
{
  "type": "node",
  "id": 1588881334,
  "lat": 38.7944416,
  "lon": -9.1188921,
  "tags": {
    "amenity": "pharmacy",
    "healthcare": "pharmacy"
  }
},
{
  "type": "node",
  "id": 1603799012,
  "lat": 38.7774820,
  "lon": -9.1098015,
  "tags": {
    "addr:postcode": "1885-094",
    "branch": "Moscavide - Jardins de Cristo Rei",
    "brand": "Pingo Doce",
    "brand:wikidata": "Q1575057",
    "brand:wikipedia": "pt:Pingo Doce",
    "contact:facebook": "pingodoce",
    "contact:instagram": "pingodoce",
    "contact:linkedin": "https://www.linkedin.com/company/pingo-doce",
    "contact:phone": "+351 938 875 461",
    "contact:tiktok": "pingodoce",
    "contact:youtube": "pingodocept",
    "name": "Pingo Doce",
    "opening_hours": "PH,Mo-Su 08:00-21:00",
    "ref": "819",
    "shop": "supermarket",
    "source:contact": "website",
    "website": "https://www.pingodoce.pt/lojas/moscavide-jardins-de-cristo-rei/",
    "wheelchair": "yes"
  }
},
{
  "type": "node",
  "id": 1650291981,
  "lat": 38.7413063,
  "lon": -9.1363346,
  "tags": {
    "addr:city": "Areeiro",
    "addr:housenumber": "20 a",
    "addr:postcode": "1000-229",
    "addr:street": "Avenida de Paris",
    "branch": "Avenida de Paris",
    "brand": "Pingo Doce",
    "brand:wikidata": "Q1575057",
    "brand:wikipedia": "pt:Pingo Doce",
    "contact:facebook": "pingodoce",
    "contact:instagram": "pingodoce",
    "contact:linkedin": "https://www.linkedin.com/company/pingo-doce",
    "contact:phone": "+351 938 875 437",
    "contact:tiktok": "pingodoce",
    "contact:youtube": "pingodocept",
    "name": "Pingo Doce",
    "opening_hours": "Mo-Su,PH 08:30-21:00",
    "ref": "437",
    "shop": "supermarket",
    "source:contact": "website",
    "website": "https://www.pingodoce.pt/lojas/avenida-de-paris/"
  }
},
{
  "type": "node",
  "id": 1669134193,
  "lat": 38.7480808,
  "lon": -9.1403521,
  "tags": {
    "addr:city": "Areeiro",
    "addr:housenumber": "25",
    "addr:postcode": "1700-115",
    "addr:street": "Rua Conde de Sabugosa",
    "addr:unit": "A",
    "branch": "Alvalade - Conde Sabugosa",
    "brand": "Pingo Doce",
    "brand:wikidata": "Q1575057",
    "brand:wikipedia": "pt:Pingo Doce",
    "contact:facebook": "pingodoce",
    "contact:instagram": "pingodoce",
    "contact:linkedin": "https://www.linkedin.com/company/pingo-doce",
    "contact:phone": "+351 938 875 803",
    "contact:tiktok": "pingodoce",
    "contact:youtube": "pingodocept",
    "name": "Pingo Doce",
    "opening_hours": "Mo-Su 08:00-21:00; easter 08:00-14:00",
    "ref": "803",
    "shop": "supermarket",
    "source:contact": "website",
    "source:opening_hours": "website",
    "website": "https://www.pingodoce.pt/lojas/alvalade-conde-sabugosa/"
  }
},
{
  "type": "node",
  "id": 1708304062,
  "lat": 38.7479375,
  "lon": -9.1488298,
  "tags": {
    "addr:city": "Lisboa",
    "addr:housenumber": "1a",
    "addr:postcode": "1700-086",
    "addr:street": "Avenida Campo Grande",
    "alt_name": "Continente Bom Dia Campo Grande",
    "branch": "Campo Grande",
    "brand": "Continente Bom Dia",
    "brand:wikidata": "Q123570507",
    "brand:wikipedia": "pt:Continente Bom Dia",
    "contact:facebook": "continenteoficial",
    "contact:instagram": "continente",
    "contact:phone": "+351 217 952 701",
    "contact:youtube": "https://www.youtube.com/user/continentept",
    "name": "Continente Bom Dia",
    "opening_hours": "Mo-Su 08:00-21:00",
    "payment:app": "yes",
    "payment:cash": "yes",
    "payment:credit_cards": "yes",
    "ref": "ad8efaf0-b381-53de-a6ce-7e4baba85e33",
    "shop": "supermarket",
    "source:contact": "website",
    "source:opening_hours": "website",
    "website": "https://feed.continente.pt/lojas/continente-bom-dia-campo-grande",
    "wheelchair": "yes"
  }
},
{
  "type": "node",
  "id": 1728481862,
  "lat": 38.7380853,
  "lon": -9.1248381,
  "tags": {
    "addr:city": "Lisboa",
    "addr:postcode": "1900-077",
    "branch": "Aquiles Machado - Lisboa",
    "brand": "My Auchan",
    "brand:wikidata": "Q115800307",
    "brand:wikipedia": "pt:Auchan",
    "contact:email": "apoiocliente@auchan.pt",
    "contact:facebook": "AuchanPortugal",
    "contact:instagram": "auchan_pt",
    "contact:phone": "+351 210 403 270",
    "contact:tiktok": "auchan_pt",
    "contact:youtube": "https://www.youtube.com/channel/UC6FSI7tYO9ISV11U2PHBBYQ",
    "name": "My Auchan",
    "old_name": "Minipreço",
    "opening_hours": "Mo-Su 08:00-21:00",
    "ref": "B02",
    "shop": "convenience",
    "source:contact": "website",
    "source:opening_hours": "website",
    "website": "https://www.auchan.pt/pt/loja?StoreID=B02",
    "wheelchair": "yes"
  }
},
{
  "type": "node",
  "id": 1728481891,
  "lat": 38.7393341,
  "lon": -9.1248158,
  "tags": {
    "addr:postcode": "1900-221",
    "branch": "Olaias",
    "brand": "Pingo Doce",
    "brand:wikidata": "Q1575057",
    "brand:wikipedia": "pt:Pingo Doce",
    "contact:facebook": "pingodoce",
    "contact:instagram": "pingodoce",
    "contact:linkedin": "https://www.linkedin.com/company/pingo-doce",
    "contact:phone": "+351 938 875 836",
    "contact:tiktok": "pingodoce",
    "contact:youtube": "pingodocept",
    "name": "Pingo Doce",
    "opening_hours": "Mo-Su 08:00-21:00; easter 08:00-14:00",
    "ref": "836",
    "shop": "supermarket",
    "source:contact": "website",
    "source:opening_hours": "website",
    "website": "https://www.pingodoce.pt/lojas/olaias/"
  }
},
{
  "type": "node",
  "id": 1743702474,
  "lat": 38.7431527,
  "lon": -9.1338727,
  "tags": {
    "addr:city": "Lisboa",
    "addr:housenumber": "5",
    "addr:postcode": "1000-222",
    "addr:street": "Avenida Padre Manuel da Nóbrega",
    "branch": "Padre Manuel da Nóbrega - Lisboa",
    "brand": "My Auchan",
    "brand:wikidata": "Q115800307",
    "brand:wikipedia": "pt:Auchan",
    "contact:email": "apoiocliente@auchan.pt",
    "contact:facebook": "AuchanPortugal",
    "contact:instagram": "auchan_pt",
    "contact:phone": "+351 210 403 270",
    "contact:tiktok": "auchan_pt",
    "contact:youtube": "https://www.youtube.com/channel/UC6FSI7tYO9ISV11U2PHBBYQ",
    "name": "My Auchan",
    "old_name": "Minipreço",
    "opening_hours": "Mo-Su 08:00-21:00",
    "payment:cash": "yes",
    "payment:credit_cards": "yes",
    "ref": "A57",
    "shop": "convenience",
    "source:contact": "website",
    "source:opening_hours": "website",
    "website": "https://www.auchan.pt/pt/loja?StoreID=A57",
    "wheelchair": "yes"
  }
},
{
  "type": "node",
  "id": 1753410584,
  "lat": 38.7321112,
  "lon": -9.1362130,
  "tags": {
    "addr:street": "Rua Alves Torgo",
    "laundry_service": "no",
    "name": "Só Seco",
    "opening_hours": "Mo-Fr 09:00-19:00; Sa 09:00-13:00",
    "phone": "+351 213 548 413",
    "self_service": "yes",
    "shop": "laundry"
  }
},
{
  "type": "node",
  "id": 1759710677,
  "lat": 38.7881605,
  "lon": -9.0996768,
  "tags": {
    "addr:postcode": "1990-514",
    "branch": "Parque das Nações - Norte",
    "brand": "Pingo Doce",
    "brand:wikidata": "Q1575057",
    "brand:wikipedia": "pt:Pingo Doce",
    "contact:facebook": "pingodoce",
    "contact:instagram": "pingodoce",
    "contact:linkedin": "https://www.linkedin.com/company/pingo-doce",
    "contact:phone": "+351 938 040 078",
    "contact:tiktok": "pingodoce",
    "contact:youtube": "pingodocept",
    "name": "Pingo Doce",
    "opening_hours": "Mo-Su 08:00-21:00; easter 08:00-14:00",
    "ref": "392",
    "shop": "supermarket",
    "source:contact": "website",
    "source:opening_hours": "website",
    "toilets:wheelchair": "yes",
    "website": "https://www.pingodoce.pt/lojas/parque-das-nacoes-norte/",
    "wheelchair": "yes"
  }
},
{
  "type": "node",
  "id": 1852999602,
  "lat": 38.7675578,
  "lon": -9.0994158,
  "tags": {
    "addr:housenumber": "LT 1.15",
    "addr:postcode": "1990-233",
    "addr:street": "Avenida Dom João II",
    "addr:unit": "Loja G220",
    "amenity": "pharmacy",
    "contact:email": "f.gareoriente@grupofarmaspot.pt",
    "contact:facebook": "farmaciagareoriente",
    "contact:instagram": "farmacia.gareoriente",
    "contact:phone": "+351 218 963 270;+351 915 700 903",
    "contact:website": "http://farmaciagareoriente.pai.pt",
    "dispensing": "yes",
    "healthcare": "pharmacy",
    "level": "0",
    "name": "Farmácia Gare do Oriente",
    "opening_hours": "Mo-Fr 08:00-21:00; Sa,Su,PH 09:00-20:00",
    "website": "https://grupofarmaspot.pt/farmacia-gare-do-oriente/",
    "wheelchair": "yes"
  }
},
{
  "type": "node",
  "id": 1913049276,
  "lat": 38.7743698,
  "lon": -9.0958438,
  "tags": {
    "addr:street": "Alameda dos Oceanos",
    "branch": "Parque das Nações (El Corte Inglês)",
    "brand": "Supercor",
    "brand:wikidata": "Q6135841",
    "brand:wikipedia": "es:Supercor",
    "name": "Supercor",
    "opening_hours": "PH,Mo-Su 08:00-21:00",
    "shop": "supermarket",
    "wheelchair": "yes"
  }
},
{
  "type": "node",
  "id": 1913068997,
  "lat": 38.7931790,
  "lon": -9.1034751,
  "tags": {
    "addr:city": "Sacavém",
    "addr:postcode": "2685-050",
    "branch": "Sacavém",
    "brand": "Pingo Doce",
    "brand:wikidata": "Q1575057",
    "brand:wikipedia": "pt:Pingo Doce",
    "contact:facebook": "pingodoce",
    "contact:instagram": "pingodoce",
    "contact:linkedin": "https://www.linkedin.com/company/pingo-doce",
    "contact:phone": "+351 938 875 445",
    "contact:tiktok": "pingodoce",
    "contact:youtube": "pingodocept",
    "name": "Pingo Doce",
    "opening_hours": "PH,Mo-Su 08:00-21:00",
    "ref": "445",
    "shop": "supermarket",
    "source:contact": "website",
    "website": "https://www.pingodoce.pt/lojas/sacavem/"
  }
},
{
  "type": "node",
  "id": 2030964791,
  "lat": 38.8030496,
  "lon": -9.0980312,
  "tags": {
    "amenity": "hospital",
    "emergency": "yes",
    "healthcare": "hospital",
    "name": "Hospital do Mar"
  }
},
{
  "type": "node",
  "id": 2302731647,
  "lat": 38.7544767,
  "lon": -9.1134237,
  "tags": {
    "name": "Muita Fruta",
    "shop": "supermarket"
  }
},
{
  "type": "node",
  "id": 2302745574,
  "lat": 38.7530920,
  "lon": -9.1145260,
  "tags": {
    "addr:city": "Lisboa",
    "addr:postcode": "1900-117",
    "branch": "Engenheiro Ferreira Dias - Lisboa",
    "brand": "My Auchan",
    "brand:wikidata": "Q115800307",
    "brand:wikipedia": "pt:Auchan",
    "contact:email": "apoiocliente@auchan.pt",
    "contact:facebook": "AuchanPortugal",
    "contact:instagram": "auchan_pt",
    "contact:phone": "+351 210 403 270",
    "contact:tiktok": "auchan_pt",
    "contact:youtube": "https://www.youtube.com/channel/UC6FSI7tYO9ISV11U2PHBBYQ",
    "name": "My Auchan",
    "old_name": "Minipreço",
    "opening_hours": "Mo-Su 08:00-21:00",
    "ref": "B32",
    "shop": "convenience",
    "source:contact": "website",
    "source:opening_hours": "website",
    "website": "https://www.auchan.pt/pt/loja?StoreID=B32"
  }
},
{
  "type": "node",
  "id": 2460598097,
  "lat": 38.7262033,
  "lon": -9.1186949,
  "tags": {
    "addr:city": "Lisboa",
    "addr:housenumber": "72",
    "addr:postcode": "1900-048",
    "addr:street": "Avenida Afonso III",
    "branch": "Afonso III - Lisboa",
    "brand": "My Auchan",
    "brand:wikidata": "Q115800307",
    "brand:wikipedia": "pt:Auchan",
    "contact:email": "apoiocliente@auchan.pt",
    "contact:facebook": "AuchanPortugal",
    "contact:instagram": "auchan_pt",
    "contact:phone": "+351 210 403 270",
    "contact:tiktok": "auchan_pt",
    "contact:youtube": "https://www.youtube.com/channel/UC6FSI7tYO9ISV11U2PHBBYQ",
    "name": "My Auchan",
    "old_name": "Minipreço",
    "opening_hours": "Mo-Su 08:00-21:00",
    "ref": "B03",
    "shop": "convenience",
    "source:contact": "website",
    "source:opening_hours": "website",
    "website": "https://www.auchan.pt/pt/loja?StoreID=B03"
  }
},
{
  "type": "node",
  "id": 2505796700,
  "lat": 38.7535441,
  "lon": -9.1447942,
  "tags": {
    "addr:postcode": "1700-036",
    "branch": "Alvalade",
    "brand": "Pingo Doce",
    "brand:wikidata": "Q1575057",
    "brand:wikipedia": "pt:Pingo Doce",
    "contact:facebook": "pingodoce",
    "contact:instagram": "pingodoce",
    "contact:linkedin": "https://www.linkedin.com/company/pingo-doce",
    "contact:phone": "+351 938 042 406",
    "contact:tiktok": "pingodoce",
    "contact:youtube": "pingodocept",
    "name": "Pingo Doce",
    "opening_hours": "Mo-Su 08:30-21:00; easter 08:30-22:00",
    "ref": "492",
    "shop": "supermarket",
    "source:contact": "website",
    "source:opening_hours": "website",
    "website": "https://www.pingodoce.pt/lojas/alvalade/",
    "wheelchair": "yes"
  }
},
{
  "type": "node",
  "id": 2630096120,
  "lat": 38.7278572,
  "lon": -9.1237406,
  "tags": {
    "leisure": "playground"
  }
},
{
  "type": "node",
  "id": 2663526353,
  "lat": 38.7761459,
  "lon": -9.1047161,
  "tags": {
    "addr:city": "Moscavide",
    "addr:housename": "Unidade Cuidados de Saúde Personalizados de Moscavide",
    "addr:housenumber": "23",
    "addr:postcode": "1885-047",
    "addr:street": "Rua Doutor João Gomes Patacão",
    "amenity": "clinic",
    "email": "ucsp.moscavide@cssacavem.min-saude.pt",
    "healthcare": "clinic",
    "name": "CATUS - Centro de Saúde de Moscavide",
    "phone": "219440881"
  }
},
{
  "type": "node",
  "id": 2703921043,
  "lat": 38.7902169,
  "lon": -9.1069295,
  "tags": {
    "addr:city": "Sacavém",
    "addr:housenumber": "20",
    "addr:postcode": "2685-010",
    "addr:street": "Rua da Associação dos Amigos da Quinta do Património",
    "branch": "Sacavém",
    "brand": "Continente Bom Dia",
    "brand:wikidata": "Q123570507",
    "brand:wikipedia": "pt:Continente Bom Dia",
    "contact:facebook": "continenteoficial",
    "contact:instagram": "continente",
    "contact:phone": "+351 219 428 520",
    "contact:youtube": "https://www.youtube.com/user/continentept",
    "name": "Continente Bom Dia",
    "opening_hours": "Mo-Su 08:00-21:00",
    "operator": "Sonae",
    "ref": "25ebd75f-5ecf-5132-b4d6-b5dda49bc8b6",
    "shop": "supermarket",
    "source:contact": "website",
    "source:opening_hours": "website",
    "website": "https://feed.continente.pt/lojas/continente-bom-dia-sacavem"
  }
},
{
  "type": "node",
  "id": 2819531676,
  "lat": 38.7529327,
  "lon": -9.1451773,
  "tags": {
    "addr:city": "Lisboa",
    "addr:housenumber": "6",
    "addr:postcode": "1700-036",
    "addr:street": "Praça de Alvalade",
    "addr:unit": "Loja 14",
    "branch": "Alvalade",
    "brand": "Celeiro",
    "brand:wikidata": "Q114102189",
    "contact:facebook": "celeiro.pt",
    "contact:instagram": "celeiro_viverdecorpoealma",
    "contact:phone": "+351 210 106 735",
    "name": "Celeiro",
    "opening_hours": "Mo-Su 09:00-21:00; Dec 24,Dec 31 09:00-19:00",
    "organic": "only",
    "ref": "817",
    "shop": "supermarket",
    "source:contact": "website",
    "source:opening_hours": "website",
    "website": "https://www.celeiro.pt/lojas/celeiro-alvalade",
    "wheelchair": "yes"
  }
},
{
  "type": "node",
  "id": 2952337797,
  "lat": 38.7484584,
  "lon": -9.1412102,
  "tags": {
    "addr:housenumber": "56 B",
    "addr:street": "Avenida de Roma",
    "amenity": "pharmacy",
    "contact:email": "avislsb@farmalink.pt",
    "contact:phone": "+351 218 495 370",
    "name": "Farmácia Avis"
  }
},
{
  "type": "node",
  "id": 2952338147,
  "lat": 38.7472598,
  "lon": -9.1405834,
  "tags": {
    "shop": "convenience"
  }
},
{
  "type": "node",
  "id": 3000893333,
  "lat": 38.7621573,
  "lon": -9.1140800,
  "tags": {
    "addr:city": "Lisboa",
    "addr:country": "PT",
    "addr:housenumber": "4, 1º, Loja 141",
    "addr:postcode": "1800-077",
    "addr:street": "Rua Cidade de Bolama",
    "alt_name": "Farmácia Fernandes Borges",
    "amenity": "pharmacy",
    "contact:email": "f.ferborges@gmail.com",
    "contact:fax": "+351 218 540 559",
    "contact:phone": "+351 211 350 886",
    "contact:website": "http://www.spacioshopping.pt/lojas/chemist-store-farmacia-fernandes-borges",
    "email": "farmaciafernandesborges@hotmail.com",
    "fax": "+351 218 540 559",
    "healthcare": "pharmacy",
    "name": "Chemist Store",
    "opening_hours": "Mo-Su 08:00-23:00",
    "phone": "+351 218 540 550"
  }
},
{
  "type": "node",
  "id": 3003098133,
  "lat": 38.7641959,
  "lon": -9.1183585,
  "tags": {
    "addr:city": "Lisboa",
    "addr:housenumber": "LT 173",
    "addr:postcode": "1800-125",
    "addr:street": "Praça Cidade Salazar",
    "branch": "Cidade Salazar - Lisboa",
    "brand": "My Auchan",
    "brand:wikidata": "Q115800307",
    "brand:wikipedia": "pt:Auchan",
    "contact:email": "apoiocliente@auchan.pt",
    "contact:facebook": "AuchanPortugal",
    "contact:instagram": "auchan_pt",
    "contact:phone": "+351 210 403 270",
    "contact:tiktok": "auchan_pt",
    "contact:youtube": "https://www.youtube.com/channel/UC6FSI7tYO9ISV11U2PHBBYQ",
    "name": "My Auchan",
    "old_name": "Minipreço",
    "opening_hours": "Mo-Su 08:00-21:00",
    "ref": "B26",
    "shop": "convenience",
    "source:contact": "website",
    "source:opening_hours": "website",
    "website": "https://www.auchan.pt/pt/loja?StoreID=B26"
  }
},
{
  "type": "node",
  "id": 3003135433,
  "lat": 38.7621357,
  "lon": -9.1140058,
  "tags": {
    "addr:postcode": "1800-079",
    "branch": "Olivais Spacio Shopping",
    "brand": "Pingo Doce",
    "brand:wikidata": "Q1575057",
    "brand:wikipedia": "pt:Pingo Doce",
    "contact:facebook": "pingodoce",
    "contact:instagram": "pingodoce",
    "contact:linkedin": "https://www.linkedin.com/company/pingo-doce",
    "contact:phone": "+351 938 875 843",
    "contact:tiktok": "pingodoce",
    "contact:youtube": "pingodocept",
    "level": "0",
    "name": "Pingo Doce",
    "opening_hours": "08:30-23:00",
    "operator": "Jerónimo Martins",
    "recycling:batteries": "yes",
    "recycling:electrical_appliances": "yes",
    "ref": "843",
    "shop": "supermarket",
    "source:contact": "website",
    "website": "https://www.pingodoce.pt/lojas/olivais-spacio-shopping/"
  }
},
{
  "type": "node",
  "id": 3003706935,
  "lat": 38.7616377,
  "lon": -9.1132333,
  "tags": {
    "amenity": "clinic",
    "email": "clinicameficasaojoao@gmail.com",
    "fax": "+351 218 540 404",
    "healthcare": "clinic",
    "name": "Clínica Médica de São João",
    "phone": "+351 218 516 388",
    "website": "https://www.clinicasaojoao.pt/"
  }
},
{
  "type": "node",
  "id": 3005729733,
  "lat": 38.7608034,
  "lon": -9.1139820,
  "tags": {
    "addr:city": "Lisboa",
    "addr:country": "PT",
    "addr:housenumber": "Lote 395",
    "addr:street": "Rua Vila de Catió",
    "amenity": "clinic",
    "healthcare": "clinic",
    "name": "Clínica Dentária Dentes do Ofício",
    "opening_hours": "09:00-13:00,15:00-19:00"
  }
},
{
  "type": "node",
  "id": 3233295221,
  "lat": 38.7780045,
  "lon": -9.0953191,
  "tags": {
    "addr:city": "Lisboa",
    "addr:housenumber": "LT 4.48.01F",
    "addr:postcode": "1990-377",
    "addr:street": "Alameda dos Oceanos",
    "branch": "Parque das Nações",
    "brand": "Meu Super",
    "brand:wikidata": "Q119948154",
    "contact:facebook": "meusuperoficial",
    "contact:instagram": "meusuperoficial",
    "contact:linkedin": "https://www.linkedin.com/company/meusuperoficial",
    "contact:phone": "+351 218 950 177",
    "name": "Meu Super",
    "opening_hours": "Mo-Sa 09:00-21:00; Su 09:00-20:00",
    "ref": "576",
    "shop": "supermarket",
    "source:contact": "website",
    "source:opening_hours": "website",
    "website": "https://www.meusuper.pt/",
    "wheelchair": "limited"
  }
},
{
  "type": "node",
  "id": 3233295222,
  "lat": 38.7782783,
  "lon": -9.0953738,
  "tags": {
    "addr:city": "Lisboa",
    "addr:postcode": "1990-212",
    "addr:street": "Alameda dos Oceanos",
    "branch": "Alameda dos Oceanos - Lisboa",
    "brand": "My Auchan",
    "brand:wikidata": "Q115800307",
    "brand:wikipedia": "pt:Auchan",
    "check_date:opening_hours": "2025-02-02",
    "contact:email": "apoiocliente@auchan.pt",
    "contact:facebook": "AuchanPortugal",
    "contact:instagram": "auchan_pt",
    "contact:phone": "+351 210 403 270",
    "contact:tiktok": "auchan_pt",
    "contact:youtube": "https://www.youtube.com/channel/UC6FSI7tYO9ISV11U2PHBBYQ",
    "name": "My Auchan",
    "old_name": "Minipreço",
    "ref": "E91",
    "shop": "supermarket",
    "source:contact": "website",
    "website": "https://www.auchan.pt/pt/loja?StoreID=E91",
    "wheelchair": "limited"
  }
},
{
  "type": "node",
  "id": 3320671762,
  "lat": 38.7829214,
  "lon": -9.1112499,
  "tags": {
    "amenity": "pharmacy",
    "check_date:opening_hours": "2025-06-10",
    "healthcare": "pharmacy",
    "name": "Farmácia Pedro",
    "opening_hours": "Mo-Fr 09:00-20:00; Sa 09:00-19:00",
    "wheelchair": "yes"
  }
},
{
  "type": "node",
  "id": 3466058325,
  "lat": 38.7320623,
  "lon": -9.1341754,
  "tags": {
    "addr:postcode": "1150-023",
    "branch": "Avenida Almirante Reis",
    "brand": "Pingo Doce",
    "brand:wikidata": "Q1575057",
    "brand:wikipedia": "pt:Pingo Doce",
    "contact:facebook": "pingodoce",
    "contact:instagram": "pingodoce",
    "contact:linkedin": "https://www.linkedin.com/company/pingo-doce",
    "contact:phone": "+351 938 875 822",
    "contact:tiktok": "pingodoce",
    "contact:youtube": "pingodocept",
    "name": "Pingo Doce",
    "opening_hours": "Mo-Su 08:00-21:30",
    "ref": "822",
    "shop": "supermarket",
    "source:contact": "website",
    "website": "https://www.pingodoce.pt/lojas/avenida-almirante-reis/",
    "wheelchair": "no"
  }
},
{
  "type": "node",
  "id": 3544924656,
  "lat": 38.7331172,
  "lon": -9.1352504,
  "tags": {
    "addr:housenumber": "159-A",
    "addr:street": "Rua António Pedro",
    "name": "Lavandaria do Bairro",
    "opening_hours": "Mo-Su 08:00-22:00",
    "self_service": "yes",
    "shop": "laundry"
  }
},
{
  "type": "node",
  "id": 3566139570,
  "lat": 38.7348476,
  "lon": -9.1331016,
  "tags": {
    "addr:housenumber": "32a",
    "addr:street": "Rua Carlos Mardel",
    "name": "Minimercado Ouro e Prata",
    "shop": "convenience"
  }
},
{
  "type": "node",
  "id": 3724863324,
  "lat": 38.7324092,
  "lon": -9.1289149,
  "tags": {
    "addr:city": "Lisboa",
    "addr:housenumber": "58A",
    "addr:postcode": "1900-348",
    "addr:street": "Rua Morais Soares",
    "branch": "Morais Soares - Lisboa",
    "brand": "My Auchan",
    "brand:wikidata": "Q115800307",
    "brand:wikipedia": "pt:Auchan",
    "contact:email": "apoiocliente@auchan.pt",
    "contact:facebook": "AuchanPortugal",
    "contact:instagram": "auchan_pt",
    "contact:phone": "+351 210 403 270",
    "contact:tiktok": "auchan_pt",
    "contact:youtube": "https://www.youtube.com/channel/UC6FSI7tYO9ISV11U2PHBBYQ",
    "name": "My Auchan",
    "old_name": "Minipreço",
    "ref": "D78",
    "shop": "supermarket",
    "source:contact": "website",
    "website": "https://www.auchan.pt/pt/loja?StoreID=D78"
  }
},
{
  "type": "node",
  "id": 3830151642,
  "lat": 38.7729581,
  "lon": -9.1184714,
  "tags": {
    "name": "Kiosk",
    "shop": "convenience"
  }
},
{
  "type": "node",
  "id": 3912581524,
  "lat": 38.7787361,
  "lon": -9.0945546,
  "tags": {
    "addr:city": "Lisboa",
    "addr:housenumber": "6A R/C (antigo 4.28.01.H)",
    "addr:postcode": "1990-237",
    "addr:street": "Jardim dos Jacarandás",
    "amenity": "pharmacy",
    "contact:email": "farmacia.pq.nacoes@sapo.pt",
    "contact:phone": "+351 218 947 000",
    "contact:website": "https://www.facebook.com/farmaciaparquenacoes",
    "dispensing": "yes",
    "healthcare": "pharmacy",
    "name": "Farmácia Parque das Nações",
    "wheelchair": "limited"
  }
},
{
  "type": "node",
  "id": 3912623389,
  "lat": 38.7553510,
  "lon": -9.0970828,
  "tags": {
    "addr:city": "Lisboa",
    "addr:housenumber": "1B",
    "addr:postcode": "1990-196",
    "addr:street": "Alameda dos Oceanos",
    "alt_name": "Farmácia dos Oceanos",
    "amenity": "pharmacy",
    "dispensing": "yes",
    "drive_through": "no",
    "email": "farmaciavilario@hotmail.com",
    "healthcare": "pharmacy",
    "name": "Farmácia Vila Rio",
    "opening_hours": "Mo-Fr 08:00-24:00, Sa-Su 09:00-20:00",
    "payment:cash": "yes",
    "payment:multibanco": "yes",
    "phone": "+351 213 543 938"
  }
},
{
  "type": "node",
  "id": 3956135607,
  "lat": 38.7478351,
  "lon": -9.1375386,
  "tags": {
    "addr:housenumber": "54-A",
    "addr:postcode": "1700-146 Alvalade",
    "addr:street": "Rua Doutor Gama Barros",
    "amenity": "pharmacy",
    "dispensing": "no",
    "name": "Farmácia Gasparinho"
  }
},
{
  "type": "node",
  "id": 3997125184,
  "lat": 38.7341586,
  "lon": -9.1284949,
  "tags": {
    "name": "Supermercado",
    "shop": "supermarket"
  }
},
{
  "type": "node",
  "id": 4023605758,
  "lat": 38.7500904,
  "lon": -9.1175099,
  "tags": {
    "addr:city": "Lisboa",
    "addr:country": "PT",
    "addr:place": "Centro Comercial Pingo Doce Belavista",
    "addr:postcode": "1900-806",
    "addr:street": "Avenida do Santo Condestável",
    "branch": "Bela Vista - Hiper",
    "brand": "Pingo Doce",
    "brand:wikidata": "Q1575057",
    "brand:wikipedia": "pt:Pingo Doce",
    "contact:facebook": "pingodoce",
    "contact:instagram": "pingodoce",
    "contact:linkedin": "https://www.linkedin.com/company/pingo-doce",
    "contact:phone": "+351 938 040 875",
    "contact:tiktok": "pingodoce",
    "contact:youtube": "pingodocept",
    "internet_access": "wlan",
    "internet_access:fee": "no",
    "name": "Pingo Doce",
    "opening_hours": "Mo-Th 08:30-22:00;Fr-Sa 08:30-23:00;Su 08:30-21:00",
    "payment:cash": "yes",
    "payment:visa_debit": "yes",
    "payment:visa_electron": "yes",
    "ref": "658",
    "shop": "supermarket",
    "source:contact": "website",
    "website": "https://www.pingodoce.pt/lojas/bela-vista-hiper/"
  }
},
{
  "type": "node",
  "id": 4090182233,
  "lat": 38.7819814,
  "lon": -9.0957080,
  "tags": {
    "addr:housenumber": "5 C",
    "addr:street": "Avenida da Peregrinação",
    "amenity": "pharmacy",
    "contact:email": "farmaciavilaexpo@hotmail.com",
    "contact:phone": "+351 218 869 831",
    "contact:website": "https://www.facebook.com/farmaciavilaexpo",
    "healthcare": "pharmacy",
    "name": "Farmácia Vila Expo",
    "wheelchair": "yes"
  }
},
{
  "type": "node",
  "id": 4105294991,
  "lat": 38.7812991,
  "lon": -9.0964606,
  "tags": {
    "addr:city": "Lisboa",
    "addr:housenumber": "4.40.01-B",
    "addr:postcode": "1990-390",
    "addr:street": "Alameda dos Oceanos",
    "amenity": "clinic",
    "healthcare": "clinic",
    "name": "Clínica Médica e Dentária do Parque das Nações",
    "opening_hours": "Mo,We,Fr,Sa 09:00-13:00,14:30-19:30; Tu,Th 08:00-13:00,14:30-19:30"
  }
},
{
  "type": "node",
  "id": 4210336989,
  "lat": 38.7805962,
  "lon": -9.1007003,
  "tags": {
    "amenity": "pharmacy",
    "healthcare": "pharmacy",
    "name": "Pedro Gomes",
    "wheelchair": "yes"
  }
},
{
  "type": "node",
  "id": 4275686053,
  "lat": 38.7369637,
  "lon": -9.1289552,
  "tags": {
    "name": "Minimercado",
    "shop": "convenience"
  }
},
{
  "type": "node",
  "id": 4340743358,
  "lat": 38.7426398,
  "lon": -9.1454476,
  "tags": {
    "addr:city": "Lisboa",
    "addr:postcode": "1000-082",
    "addr:street": "Campo Pequeno",
    "name": "Produtos Naturais",
    "organic": "only",
    "shop": "supermarket"
  }
},
{
  "type": "node",
  "id": 4466223031,
  "lat": 38.7898147,
  "lon": -9.1223621,
  "tags": {
    "shop": "laundry"
  }
},
{
  "type": "node",
  "id": 4486453292,
  "lat": 38.7826943,
  "lon": -9.0950748,
  "tags": {
    "name": "Pomar da Rosa",
    "shop": "supermarket",
    "wheelchair": "yes"
  }
},
{
  "type": "node",
  "id": 4522429968,
  "lat": 38.7640644,
  "lon": -9.1356911,
  "tags": {
    "level": "1",
    "name": "Tasty2go",
    "shop": "convenience"
  }
},
{
  "type": "node",
  "id": 4646727792,
  "lat": 38.7975837,
  "lon": -9.1161805,
  "tags": {
    "amenity": "clinic",
    "healthcare": "clinic",
    "name": "Centro Saúde",
    "name:pt": "Centro Saúde"
  }
},
{
  "type": "node",
  "id": 4693248704,
  "lat": 38.7938936,
  "lon": -9.1036799,
  "tags": {
    "amenity": "clinic",
    "brand": "Joaquim Chaves Saúde",
    "healthcare": "clinic",
    "name": "Posto de Colheitas da Joaquim Chaves Saúde - Sacavém",
    "operator": "Joaquim Chaves Saúde"
  }
},
{
  "type": "node",
  "id": 4773880667,
  "lat": 38.7329917,
  "lon": -9.1358547,
  "tags": {
    "shop": "convenience"
  }
},
{
  "type": "node",
  "id": 4773880669,
  "lat": 38.7331340,
  "lon": -9.1349884,
  "tags": {
    "name": "Mist Market",
    "shop": "convenience"
  }
},
{
  "type": "node",
  "id": 4783966466,
  "lat": 38.7517251,
  "lon": -9.1107737,
  "tags": {
    "addr:city": "Lisboa",
    "addr:housenumber": "65A",
    "addr:street": "Rua Rui de Sousa",
    "addr:unit": "65",
    "amenity": "pharmacy",
    "contact:email": "farmacia_falcao@yahoo.com.br",
    "contact:phone": "+351 218 596 565",
    "contact:website": "http://falcaofarmacias.pai.pt/",
    "healthcare": "pharmacy",
    "name": "Farmácia Falcão"
  }
},
{
  "type": "node",
  "id": 4785637156,
  "lat": 38.7693332,
  "lon": -9.1294321,
  "tags": {
    "addr:housenumber": "Aeroporto, Terminal 1, Piso 0",
    "addr:street": "Alameda das Comunidades Portuguesas",
    "amenity": "pharmacy",
    "contact:email": "farmacia.aeroporto@gmail.com",
    "contact:phone": "+351 218 413 582",
    "contact:website": "https://www.aeroportolisboa.pt/pt/lis/servicos-e-compras/servicos-essenciais/servicos-de-saude",
    "dispensing": "yes",
    "healthcare": "pharmacy",
    "level": "1",
    "name": "Farmácia Aeroporto",
    "name:en": "Farmácia Airport",
    "name:es": "Farmacia Aeropuerto",
    "wheelchair": "yes"
  }
},
{
  "type": "node",
  "id": 4785637161,
  "lat": 38.7753592,
  "lon": -9.1128075,
  "tags": {
    "addr:housenumber": "7 C",
    "addr:street": "Rua Alferes Barrilaro Ruas",
    "amenity": "pharmacy",
    "check_date:opening_hours": "2024-12-29",
    "contact:email": "farmaciacolivais@gmail.com",
    "contact:phone": "+351 218 515 539",
    "contact:website": "https://www.facebook.com/Farmácia-Central-dos-Olivais-393413660838514",
    "dispensing": "yes",
    "healthcare": "pharmacy",
    "name": "Farmácia Central dos Olivais",
    "opening_hours": "Mo-Fr 09:00-20:00; Sa 09:00-19:00"
  }
},
{
  "type": "node",
  "id": 4785637163,
  "lat": 38.7662409,
  "lon": -9.1241933,
  "tags": {
    "addr:housenumber": "46 C",
    "addr:street": "Rua Cidade da Beira",
    "amenity": "pharmacy",
    "contact:email": "farmacialemos@sapo.pt",
    "contact:phone": "+351 218 531 692",
    "contact:website": "https://www.facebook.com/Farmácia-Lemos-Olivais-Sul-350082145088139",
    "dispensing": "yes",
    "healthcare": "pharmacy",
    "name": "Farmácia Lemos"
  }
},
{
  "type": "node",
  "id": 4785637164,
  "lat": 38.7597936,
  "lon": -9.1243139,
  "tags": {
    "addr:housenumber": "Lote 226",
    "addr:street": "Rua Keil do Amaral",
    "addr:unit": "Loja 22",
    "amenity": "pharmacy",
    "contact:email": "farmacia.santos.silva.lx@gmail.com",
    "contact:phone": "+351 218 591 265",
    "contact:website": "https://www.facebook.com/Farmácia-Santos-Silva-739876282701194",
    "dispensing": "yes",
    "healthcare": "pharmacy",
    "name": "Farmácia Santos Silva"
  }
},
{
  "type": "node",
  "id": 4785637175,
  "lat": 38.7430772,
  "lon": -9.1416437,
  "tags": {
    "addr:housenumber": "38 A",
    "addr:street": "Avenida Óscar Monteiro Torres",
    "amenity": "pharmacy",
    "contact:email": "farmaciagalenolisboa@gmail.com",
    "contact:phone": "+351 217 976 510",
    "contact:website": "https://www.facebook.com/farmaciagalenolisboa",
    "dispensing": "yes",
    "name": "Farmácia Galeno"
  }
},
{
  "type": "node",
  "id": 4788769526,
  "lat": 38.7570476,
  "lon": -9.1460979,
  "tags": {
    "addr:city": "Lisboa",
    "addr:housename": "Pavilhão 11",
    "addr:housenumber": "53-53D",
    "addr:postcode": "1749-002",
    "addr:street": "Avenida do Brasil",
    "alt_name": "Centro Hospitalar Psiquiátrico de Lisboa",
    "amenity": "hospital",
    "contact:email": "administracao@chpl.min-saude.pt",
    "contact:phone": "+351 217 917 000",
    "contact:website": "http://www.hjmatos.min-saude.pt/",
    "healthcare": "hospital",
    "name": "Hospital Júlio de Matos",
    "ownership": "national",
    "wheelchair": "yes",
    "wikidata": "Q10298412",
    "wikimedia_commons": "Category:Hospital Júlio de Matos"
  }
},
{
  "type": "node",
  "id": 4797485628,
  "lat": 38.7331332,
  "lon": -9.1354755,
  "tags": {
    "shop": "convenience"
  }
},
{
  "type": "node",
  "id": 4824117947,
  "lat": 38.7326831,
  "lon": -9.1324841,
  "tags": {
    "addr:city": "Lisboa",
    "addr:housenumber": "1-A",
    "addr:street": "Rua José Falcão",
    "name": "Branco da Silva",
    "opening_hours": "Mo-Fr 09:00-13:00, 15:00-19:00; Sa 09:00-13:00",
    "shop": "laundry"
  }
},
{
  "type": "node",
  "id": 4824117949,
  "lat": 38.7325688,
  "lon": -9.1325594,
  "tags": {
    "addr:city": "Lisboa",
    "addr:housenumber": "24",
    "addr:street": "Rua Cavaleiro de Oliveira",
    "name": "Lamjung Minimercado",
    "opening_hours": "Mo-Su 09:00-22:00",
    "shop": "convenience"
  }
},
{
  "type": "node",
  "id": 4824117987,
  "lat": 38.7317116,
  "lon": -9.1342010,
  "tags": {
    "addr:city": "Lisboa",
    "addr:housenumber": "114 A",
    "addr:postcode": "1170-140",
    "addr:street": "Avenida Almirante Reis",
    "branch": "Almirante Reis 114 - Lisboa",
    "brand": "My Auchan",
    "brand:wikidata": "Q115800307",
    "brand:wikipedia": "pt:Auchan",
    "contact:email": "apoiocliente@auchan.pt",
    "contact:facebook": "AuchanPortugal",
    "contact:instagram": "auchan_pt",
    "contact:phone": "+351 210 403 270",
    "contact:tiktok": "auchan_pt",
    "contact:youtube": "https://www.youtube.com/channel/UC6FSI7tYO9ISV11U2PHBBYQ",
    "name": "My Auchan",
    "old_name": "Minipreço",
    "opening_hours": "Mo-Su 08:00-23:00",
    "ref": "B57",
    "shop": "convenience",
    "source:contact": "website",
    "source:opening_hours": "website",
    "website": "https://www.auchan.pt/pt/loja?StoreID=B57"
  }
},
{
  "type": "node",
  "id": 4824118377,
  "lat": 38.7326546,
  "lon": -9.1332556,
  "tags": {
    "addr:city": "Lisboa",
    "addr:housenumber": "160-170",
    "addr:street": "Rua Francisco Sanches",
    "name": "Popy Minimercado",
    "shop": "convenience"
  }
},
{
  "type": "node",
  "id": 4824118541,
  "lat": 38.7323017,
  "lon": -9.1336256,
  "tags": {
    "addr:city": "Lisboa",
    "addr:housenumber": "65-A",
    "addr:street": "Rua Francisco Sanches",
    "laundry_service": "yes",
    "name": "Lavatax",
    "opening_hours": "Mo-Fr 09:00-13:00, 14:00-19:00; Sa 09:00-13:00",
    "self_service": "no",
    "shop": "laundry"
  }
},
{
  "type": "node",
  "id": 4824118694,
  "lat": 38.7319268,
  "lon": -9.1341730,
  "tags": {
    "addr:city": "Lisboa",
    "addr:housenumber": "120-A/C",
    "addr:postcode": "1150-023",
    "addr:street": "Avenida Almirante Reis",
    "brand:wikipedia": "en:Amplifon",
    "description": "Mainly Asian goods (Chinese), fruits and vegetables. Also there is a cafe.",
    "name": "Super Fruta King",
    "opening_hours": "Mo-Su 09:00-21:00",
    "shop": "supermarket"
  }
},
{
  "type": "node",
  "id": 4824118707,
  "lat": 38.7322996,
  "lon": -9.1324776,
  "tags": {
    "addr:city": "Lisboa",
    "addr:housenumber": "41-B",
    "addr:street": "Rua Cavaleiro de Oliveira",
    "facebook": "facebook.com/jardinsdaroupa",
    "internet_access": "wlan",
    "name": "Jardins da Roupa",
    "opening_hours": "Mo-Su 08:00-22:00",
    "shop": "laundry",
    "website": "lavandariaselfservicelisboa.pt"
  }
},
{
  "type": "node",
  "id": 5028418123,
  "lat": 38.7863386,
  "lon": -9.1111874,
  "tags": {
    "addr:housenumber": "lote 204",
    "addr:postcode": "2685-221",
    "addr:street": "Rua Mouzinho de Albuquerque",
    "amenity": "pharmacy",
    "healthcare": "pharmacy",
    "name": "Farmácia Gaspar",
    "opening_hours": "Mo-Fr 08:30-20:00; Sa,PH 09:00-19:00",
    "wheelchair": "yes"
  }
},
{
  "type": "node",
  "id": 5070396294,
  "lat": 38.7310225,
  "lon": -9.1334829,
  "tags": {
    "addr:housenumber": "6-E",
    "addr:street": "Praça Olegário Mariano",
    "name": "Bishwakarma mini super shop",
    "opening_hours": "PH,Mo-Su 08:00-22:00",
    "shop": "convenience"
  }
},
{
  "type": "node",
  "id": 5152117570,
  "lat": 38.7761115,
  "lon": -9.1029123,
  "tags": {
    "addr:city": "Moscavide",
    "addr:housenumber": "39",
    "addr:postcode": "1885-031",
    "addr:street": "Rua Artur Ferreira da Silva",
    "laundry_service": "no",
    "name": "Launderette",
    "name:de": "Waschsalon",
    "opening_hours": "PH,Mo-Su 07:30-22:00",
    "self_service": "yes",
    "shop": "laundry"
  }
},
{
  "type": "node",
  "id": 5205650019,
  "lat": 38.7692318,
  "lon": -9.1299444,
  "tags": {
    "access": "yes",
    "leisure": "playground",
    "level": "5"
  }
},
{
  "type": "node",
  "id": 5228033741,
  "lat": 38.7421014,
  "lon": -9.1344539,
  "tags": {
    "addr:city": "Areeiro",
    "addr:housenumber": "3",
    "addr:postcode": "1000-297",
    "addr:street": "Avenida João XXI",
    "branch": "João XXI",
    "brand": "My Auchan",
    "brand:wikidata": "Q115800307",
    "brand:wikipedia": "pt:Auchan",
    "contact:email": "apoiocliente@auchan.pt",
    "contact:facebook": "AuchanPortugal",
    "contact:instagram": "auchan_pt",
    "contact:phone": "+351 210 403 270",
    "contact:tiktok": "auchan_pt",
    "contact:youtube": "https://www.youtube.com/channel/UC6FSI7tYO9ISV11U2PHBBYQ",
    "name": "My Auchan",
    "opening_hours": "Mo-Su 08:30-21:00;Dec 24 08:30-17:00;Dec 31 08:30-18:00;easter, Dec 25, Jan 01 off",
    "operator": "Auchan",
    "operator:wikidata": "Q758603",
    "operator:wikipedia": "pt:Auchan",
    "ref": "402",
    "shop": "convenience",
    "source:contact": "website",
    "source:opening_hours": "website",
    "website": "https://www.auchan.pt/pt/loja?StoreID=402"
  }
},
{
  "type": "node",
  "id": 5232957712,
  "lat": 38.7311984,
  "lon": -9.1329900,
  "tags": {
    "addr:housenumber": "2-C/D",
    "addr:street": "Praça Olegário Mariano",
    "amenity": "clinic",
    "email": "clinicamiguelbento@gmail.com",
    "facebook": "facebook.com/ClinicaMiguelBento/",
    "healthcare": "clinic;dentist",
    "name": "Clínica Doutor Miguel Bento",
    "phone": "+351 218 134 433;+351 914 563 293"
  }
},
{
  "type": "node",
  "id": 5256910033,
  "lat": 38.7242921,
  "lon": -9.1174737,
  "tags": {
    "addr:city": "Lisboa",
    "amenity": "clinic",
    "email": "usf.oriente@arslvt.min-saude.pt",
    "fixme": "location approximate",
    "healthcare": "centre",
    "name": "Unidade de Saúde Familiar Oriente",
    "note": "Agrupamento de Centros de Saúde Lisboa Central",
    "phone": "+351 218 101 010",
    "short_name": "USF Oriente"
  }
},
{
  "type": "node",
  "id": 5256910049,
  "lat": 38.7593811,
  "lon": -9.1490374,
  "tags": {
    "amenity": "clinic",
    "email": "usfdoparque@csalvalade.min-saude.pt",
    "healthcare": "centre",
    "name": "Unidade de Saúde Familiar Parque",
    "note": "Agrupamento de Centros de Saúde Lisboa Norte",
    "phone": "+351 216 816 447",
    "short_name": "USF Parque"
  }
},
{
  "type": "node",
  "id": 5256910050,
  "lat": 38.7595714,
  "lon": -9.1489731,
  "tags": {
    "amenity": "clinic",
    "email": "secretaria.geral@csalvalade.min-saude.pt",
    "healthcare": "centre",
    "name": "Unidade de Cuidados de Saúde Personalizados de Alvalade",
    "note": "Agrupamento de Centros de Saúde Grande Lisboa Norte",
    "phone": "+351 217 816 440",
    "short_name": "UCSP Alvalade"
  }
},
{
  "type": "node",
  "id": 5256910051,
  "lat": 38.7723210,
  "lon": -9.1186050,
  "tags": {
    "amenity": "clinic",
    "email": "ucsp.olivais@arslvt.min-saude.pt",
    "fixme": "location approximate",
    "healthcare": "clinic",
    "name": "Unidade de Cuidados de Saúde Personalizados dos Olivais",
    "phone": "+351 218 507 048",
    "short_name": "UCSP Olivais"
  }
},
{
  "type": "node",
  "id": 5256910052,
  "lat": 38.7724229,
  "lon": -9.1184193,
  "tags": {
    "amenity": "clinic",
    "email": "usf.jencarnacao@arslvt.min-saude.pt",
    "fixme": "location approximate",
    "healthcare": "clinic",
    "name": "Unidade de Saúde Familiar Jardins da Encarnação",
    "phone": "+351 218 507 077",
    "short_name": "USF Jardins da Encarnação"
  }
},
{
  "type": "node",
  "id": 5256910053,
  "lat": 38.7725197,
  "lon": -9.1182429,
  "tags": {
    "amenity": "clinic",
    "email": "usf.vgama@arslvt.min-saude.pt",
    "fixme": "location approximate",
    "healthcare": "clinic",
    "name": "Unidade de Saúde Familiar Vasco da Gama",
    "phone": "+351 218 507 000",
    "short_name": "USF Vasco da Gama"
  }
},
{
  "type": "node",
  "id": 5256910063,
  "lat": 38.7459178,
  "lon": -9.1018545,
  "tags": {
    "addr:city": "Lisboa",
    "addr:country": "PT",
    "addr:housenumber": "56",
    "addr:postcode": "1900-665",
    "addr:street": "Rua Doutor Estêvão de Vasconcelos",
    "amenity": "clinic",
    "email": "ucsp.marvila@arslvt.min-saude.pt",
    "healthcare": "centre",
    "name": "Unidade de Cuidados de Saúde Personalizados de Marvila",
    "note": "Agrupamento de Centros de Saúde Lisboa Central",
    "phone": "+351 218 620 750",
    "short_name": "UCSP Marvila"
  }
},
{
  "type": "node",
  "id": 5278779986,
  "lat": 38.7553582,
  "lon": -9.1494615,
  "tags": {
    "addr:city": "Lisboa",
    "addr:country": "PT",
    "addr:housenumber": "38-A",
    "addr:postcode": "1700-071",
    "addr:street": "Avenida do Brasil",
    "amenity": "pharmacy",
    "healthcare": "pharmacy",
    "name": "Pimpão"
  }
},
{
  "type": "node",
  "id": 5296279329,
  "lat": 38.7339684,
  "lon": -9.1313996,
  "tags": {
    "laundry_service": "no",
    "name": "Navegantes",
    "opening_hours": "Mo-Su,PH 08:00-24:00",
    "self_service": "yes",
    "shop": "laundry"
  }
},
{
  "type": "node",
  "id": 5315605716,
  "lat": 38.7346340,
  "lon": -9.1323581,
  "tags": {
    "addr:housenumber": "13 D",
    "addr:street": "Rua José Ricardo",
    "name": "Piar Ali Mini Mercado",
    "shop": "convenience"
  }
},
{
  "type": "node",
  "id": 5315605717,
  "lat": 38.7348616,
  "lon": -9.1321603,
  "tags": {
    "addr:housenumber": "36",
    "addr:postcode": "1900-287",
    "addr:street": "Rua José Ricardo",
    "facebook": "facebook.com/lavadeiradobairro/",
    "name": "Lavadeira do Bairro",
    "opening_hours": "Mo-Su 08:30-22:30",
    "phone": "+351 913 383 431",
    "self_service": "yes",
    "shop": "laundry",
    "website": "www.lavadeiradobairro.com"
  }
},
{
  "type": "node",
  "id": 5382749422,
  "lat": 38.7436387,
  "lon": -9.1367269,
  "tags": {
    "addr:housenumber": "19",
    "addr:street": "Avenida de Madrid",
    "name": "Madridhouse",
    "shop": "laundry"
  }
},
{
  "type": "node",
  "id": 5446364960,
  "lat": 38.7551082,
  "lon": -9.1202982,
  "tags": {
    "access": "yes",
    "description": "Rua Adães Bermudes",
    "leisure": "playground",
    "name": "Parque Infantil do Bairro dos Lóios",
    "source": "dadosabertos.cm-lisboa.pt",
    "source:pkey": "b32b8130-7cf7-43f0-ab22-ca49882d1433"
  }
},
{
  "type": "node",
  "id": 5446364965,
  "lat": 38.7696033,
  "lon": -9.1214314,
  "tags": {
    "access": "yes",
    "description": "Avenida de Berlim",
    "leisure": "playground",
    "name": "Parque Infantil do Parque Edgar Sampaio Fontes",
    "source": "dadosabertos.cm-lisboa.pt",
    "source:pkey": "7ac667f8-721f-4f06-9add-c019308e3118"
  }
},
{
  "type": "node",
  "id": 5446364972,
  "lat": 38.7626203,
  "lon": -9.1215625,
  "tags": {
    "access": "yes",
    "description": "Praça de Bilene, frente ao nº 1",
    "leisure": "playground",
    "name": "Parque Infantil da Praça de Bilene",
    "source": "dadosabertos.cm-lisboa.pt",
    "source:pkey": "824ff886-7960-442f-8009-ffbc1bd20b84"
  }
},
{
  "type": "node",
  "id": 5446364979,
  "lat": 38.7553343,
  "lon": -9.1410657,
  "tags": {
    "access": "yes",
    "description": "Rua José Duro",
    "leisure": "playground",
    "name": "Parque Infantil da Rua José Duro",
    "source": "dadosabertos.cm-lisboa.pt",
    "source:pkey": "0fa19e5c-8f44-4e09-9a01-f50aa4042d4a",
    "wheelchair": "yes"
  }
},
{
  "type": "node",
  "id": 5446364987,
  "lat": 38.7481444,
  "lon": -9.1028309,
  "tags": {
    "access": "yes",
    "addr:city": "Lisboa",
    "addr:postcode": "1950-266",
    "addr:street": "Rua Fernando Maurício",
    "description": "Rua Fernando Maurício(antiga Rua Proj. Sul e Nasc. - Urb. Vale For. Cima)",
    "leisure": "playground",
    "name": "Parque Infantil da Rua Fernando Mauricio",
    "source": "dadosabertos.cm-lisboa.pt",
    "source:pkey": "f2474e96-0086-48ff-b50f-ad9b7edadae2"
  }
},
{
  "type": "node",
  "id": 5446364994,
  "lat": 38.7456000,
  "lon": -9.1190658,
  "tags": {
    "access": "yes",
    "description": "Avenida Vergílio Ferreira(antiga Rua M3 do Bairro do Armador Chelas)",
    "leisure": "playground",
    "name": "Parque Infantil do Bairro do Armador",
    "source": "dadosabertos.cm-lisboa.pt",
    "source:pkey": "86dca0ed-be4e-4f9c-b0be-dd77abfb6dd6"
  }
},
{
  "type": "node",
  "id": 5446364996,
  "lat": 38.7454639,
  "lon": -9.1088558,
  "tags": {
    "access": "yes",
    "description": "Rua Pedro de Azevedo(antiga Rua C e Impasse C1 do Bairro da Prodac)",
    "leisure": "playground",
    "name": "Parque Infantil da Rua Pedro de Azevedo",
    "source": "dadosabertos.cm-lisboa.pt",
    "source:pkey": "cf39a5c9-4e55-4162-a982-24f95e958274"
  }
},
{
  "type": "node",
  "id": 5446364997,
  "lat": 38.7741875,
  "lon": -9.1510468,
  "tags": {
    "access": "yes",
    "description": "Rua Adriana de Vecchi(antiga Rua 7.11, Rua 7.12 e Rua A da Malha 7)",
    "leisure": "playground",
    "name": "Parque Infantil do PER 10-Malha 25",
    "source": "dadosabertos.cm-lisboa.pt",
    "source:pkey": "58d3fdb1-2d2a-4a56-9187-db8f02130982"
  }
},
{
  "type": "node",
  "id": 5446365002,
  "lat": 38.7747834,
  "lon": -9.1513529,
  "tags": {
    "access": "yes",
    "description": "Alameda da Música(antigo Arrua. Inte. da Malha 15 - Alto do Lumiar)",
    "leisure": "playground",
    "name": "Parque Infantil da Alameda da Música 1",
    "source": "dadosabertos.cm-lisboa.pt",
    "source:pkey": "91b9a71b-0054-4d05-9f5d-bbb558bacf26"
  }
},
{
  "type": "node",
  "id": 5446365004,
  "lat": 38.7585430,
  "lon": -9.1070097,
  "tags": {
    "access": "yes",
    "description": "Rua de Manhiça(antiga Rua E1 e Imp. E da Célula E de Olivais Sul), junto ao lote 463",
    "leisure": "playground",
    "name": "Parque Infantil da Rua de Manhiça",
    "source": "dadosabertos.cm-lisboa.pt",
    "source:pkey": "2f2c7602-ff23-4656-83ef-3d5205fdbc7c"
  }
},
{
  "type": "node",
  "id": 5446365008,
  "lat": 38.7649088,
  "lon": -9.1077536,
  "tags": {
    "access": "yes",
    "description": "Rua Cândido de Oliveira(antiga Rua G da Célula F de Olivais Sul)",
    "leisure": "playground",
    "name": "Parque Infantil da Rua Cândido de Oliveira",
    "source": "dadosabertos.cm-lisboa.pt",
    "source:pkey": "fa1760df-d7b7-4338-9e1c-b82644730dd8"
  }
},
{
  "type": "node",
  "id": 5446365009,
  "lat": 38.7548561,
  "lon": -9.1112443,
  "tags": {
    "access": "yes",
    "description": "Rua Dr. José Espírito Santo(antiga Rua I4 da Malha I de Chelas)",
    "leisure": "playground",
    "name": "Parque Infantil do Bairro das Amendoeiras",
    "source": "dadosabertos.cm-lisboa.pt",
    "source:pkey": "3e1a5a38-11f2-4913-9245-29fbb5929ebb"
  }
},
{
  "type": "node",
  "id": 5446365013,
  "lat": 38.7429460,
  "lon": -9.1070702,
  "tags": {
    "access": "yes",
    "description": "Rua de José do Patrocínio(antiga Azinhaga dos Cadetes)",
    "leisure": "playground",
    "name": "Parque Infantil da Rua de José do Patrocínio",
    "source": "dadosabertos.cm-lisboa.pt",
    "source:pkey": "00237471-a2d1-4e07-8d01-dfbe3dbe4de6"
  }
},
{
  "type": "node",
  "id": 5446365021,
  "lat": 38.7496300,
  "lon": -9.1390072,
  "tags": {
    "access": "yes",
    "description": "Avenida dos Estados Unidos da América, estacionamento",
    "leisure": "playground",
    "name": "Parque Infantil da Avenida Estados Unidos da América- Lado Nascente",
    "source": "dadosabertos.cm-lisboa.pt",
    "source:pkey": "c308df81-1659-4c24-8a9d-31376cd1a0cf"
  }
},
{
  "type": "node",
  "id": 5446365022,
  "lat": 38.7492665,
  "lon": -9.1343960,
  "tags": {
    "access": "yes",
    "leisure": "playground",
    "name": "Parque Infantil da Avenida dos Estados Unidos da América",
    "source": "dadosabertos.cm-lisboa.pt"
  }
},
{
  "type": "node",
  "id": 5446365023,
  "lat": 38.7490428,
  "lon": -9.1452485,
  "tags": {
    "access": "yes",
    "description": "Avenida dos Estados Unidos da América",
    "leisure": "playground",
    "name": "Parque Infantil da Avenida Estados Unidos da América",
    "source": "dadosabertos.cm-lisboa.pt",
    "source:pkey": "688fc300-af93-45e4-9321-a492a20e7d4b"
  }
},
{
  "type": "node",
  "id": 5446365024,
  "lat": 38.7747891,
  "lon": -9.1133141,
  "tags": {
    "access": "yes",
    "description": "Rua Capitão Tenente Oliveira e Carmo",
    "leisure": "playground",
    "name": "Parque Infantil do Parque Recreativo dos Olivais Norte",
    "source": "dadosabertos.cm-lisboa.pt",
    "source:pkey": "2bacf8c0-c1c3-4ca4-8a25-57443bcaad97"
  }
},
{
  "type": "node",
  "id": 5446365032,
  "lat": 38.7723757,
  "lon": -9.1087502,
  "tags": {
    "access": "yes",
    "description": "Avenida Dr. Francisco Luís Gomes",
    "leisure": "playground",
    "name": "Parque Infantil da Quinta Conde d'Arcos",
    "source": "dadosabertos.cm-lisboa.pt",
    "source:pkey": "9a40a4f8-6a74-49d9-830a-ceda98f573bb"
  }
},
{
  "type": "node",
  "id": 5446365036,
  "lat": 38.7345955,
  "lon": -9.1154489,
  "tags": {
    "access": "yes",
    "description": "Rua Dr. Manuel Espírito Santo",
    "leisure": "playground",
    "name": "Parque Infantil do Bairro da Quinta dos Ourives",
    "source": "dadosabertos.cm-lisboa.pt",
    "source:pkey": "b66b4808-b32c-4580-945b-a67817ae43ab"
  }
},
{
  "type": "node",
  "id": 5446365038,
  "lat": 38.7355779,
  "lon": -9.1201777,
  "tags": {
    "access": "yes",
    "description": "Rua da Fábrica de Estamparia",
    "leisure": "playground",
    "name": "Parque Infantil da Rua Carlos Botelho",
    "source": "dadosabertos.cm-lisboa.pt",
    "source:pkey": "325f8c23-4ff6-405b-b790-fef0925153f6"
  }
},
{
  "type": "node",
  "id": 5446365040,
  "lat": 38.7643994,
  "lon": -9.1146164,
  "tags": {
    "access": "yes",
    "description": "Praça Cidade de São Salvador",
    "leisure": "playground",
    "name": "Parque Infantil da Praça Cidade de São Salvador 2",
    "source": "dadosabertos.cm-lisboa.pt",
    "source:pkey": "9d35d6d7-9a25-4d27-8289-e98dbff7e044"
  }
},
{
  "type": "node",
  "id": 5446365041,
  "lat": 38.7645931,
  "lon": -9.1145217,
  "tags": {
    "access": "yes",
    "description": "Praça Cidade de São Salvador",
    "leisure": "playground",
    "name": "Parque Infantil da Praça Cidade de São Salvador 1",
    "source": "dadosabertos.cm-lisboa.pt",
    "source:pkey": "9acd3334-9141-4614-8faf-aede2ad45651"
  }
},
{
  "type": "node",
  "id": 5446365047,
  "lat": 38.7603282,
  "lon": -9.1375079,
  "tags": {
    "access": "yes",
    "description": "Rua Engenheiro Manuel Rocha",
    "leisure": "playground",
    "name": "Parque Infantil do Bairro da Boa Esperança",
    "source": "dadosabertos.cm-lisboa.pt",
    "source:pkey": "bba19bd9-90c3-4312-879f-5cfe53c116b1"
  }
},
{
  "type": "node",
  "id": 5446365055,
  "lat": 38.7671689,
  "lon": -9.1203153,
  "tags": {
    "access": "yes",
    "description": "Rua Cidade de Vila Cabral",
    "leisure": "playground",
    "name": "Parque Infantil da Rua Cidade Vila Cabral",
    "source": "dadosabertos.cm-lisboa.pt",
    "source:pkey": "4760445a-cbae-4abe-822a-3b3b4d133052"
  }
},
{
  "type": "node",
  "id": 5446365061,
  "lat": 38.7348745,
  "lon": -9.1274378,
  "tags": {
    "access": "yes",
    "description": "Rua António Luís Inácio",
    "leisure": "playground",
    "name": "Parque Infantil do Jardim Bulhão Pato",
    "source": "dadosabertos.cm-lisboa.pt",
    "source:pkey": "4858525e-7730-44d3-9bdf-68ad91b16209"
  }
},
{
  "type": "node",
  "id": 5446365062,
  "lat": 38.7466486,
  "lon": -9.1053821,
  "tags": {
    "access": "yes",
    "description": "Azinhaga do Vale Fundão",
    "leisure": "playground",
    "name": "Parque Infantil da Quinta das Flores",
    "source": "dadosabertos.cm-lisboa.pt",
    "source:pkey": "d2ad3467-a787-4e4a-be72-26cd0e36fb8a"
  }
},
{
  "type": "node",
  "id": 5446365063,
  "lat": 38.7251341,
  "lon": -9.1163419,
  "tags": {
    "access": "yes",
    "description": "Rua do Cruzado Osberno",
    "leisure": "playground",
    "name": "Parque Infantil da Rua do Cruzado Osberno",
    "source": "dadosabertos.cm-lisboa.pt",
    "source:pkey": "aaa53a0e-3137-4e0a-8267-b9eea905901d"
  }
},
{
  "type": "node",
  "id": 5446365068,
  "lat": 38.7328479,
  "lon": -9.1155486,
  "tags": {
    "access": "yes",
    "description": "Largo da Madre de Deus",
    "leisure": "playground",
    "name": "Parque Infantil da Mata da Madre Deus",
    "source": "dadosabertos.cm-lisboa.pt",
    "source:pkey": "d86f5bdb-0c3a-4af6-908a-07eaaebef6ff"
  }
},
{
  "type": "node",
  "id": 5446365074,
  "lat": 38.7454627,
  "lon": -9.1134709,
  "tags": {
    "access": "yes",
    "description": "Avenida João Paulo II",
    "leisure": "playground",
    "name": "Parque Infantil da Avenida João Paulo II",
    "source": "dadosabertos.cm-lisboa.pt",
    "source:pkey": "fc425e59-b21a-425a-85b3-e6b1d95bc834"
  }
},
{
  "type": "node",
  "id": 5446365082,
  "lat": 38.7500259,
  "lon": -9.1439828,
  "tags": {
    "access": "yes",
    "description": "Rua António Patrício",
    "leisure": "playground",
    "name": "Parque Infantil da Rua António Patrício",
    "source": "dadosabertos.cm-lisboa.pt",
    "source:pkey": "d3a9ce91-a201-4888-a661-deef53703388"
  }
},
{
  "type": "node",
  "id": 5446365098,
  "lat": 38.7486808,
  "lon": -9.1231142,
  "tags": {
    "access": "yes",
    "description": "Rua Gomes de Brito",
    "leisure": "playground",
    "name": "Parque Infantil da Bela Vista Zona Centro",
    "source": "dadosabertos.cm-lisboa.pt",
    "source:pkey": "7a4edc4e-57c6-48a4-a6ee-cfa29432ad73"
  }
},
{
  "type": "node",
  "id": 5446365099,
  "lat": 38.7485583,
  "lon": -9.1233045,
  "tags": {
    "access": "yes",
    "description": "Rua Gomes de Brito",
    "leisure": "playground",
    "name": "Parque Juvenil da Bela Vista Zona Centro",
    "source": "dadosabertos.cm-lisboa.pt",
    "source:pkey": "19eeb112-219e-48f8-a97a-f70e2848b6a3"
  }
},
{
  "type": "node",
  "id": 5457851361,
  "lat": 38.7517725,
  "lon": -9.1502870,
  "tags": {
    "artist_name": "Samuel Azavey Torres de Carvalho",
    "artwork_subject": "figurative",
    "description": "Fonte-escultura, que representa uma caricatura, decorrente do desenho cartoonado, executada, em 1992, por Samuel Torres de Carvalho, mais conhecido por Sam.",
    "leisure": "park",
    "material": "bronze",
    "name": "Infância",
    "operator": "Câmara Municipal de Lisboa",
    "operator:type": "government",
    "operator:wikidata": "Q30255955",
    "source": "dadosabertos.cm-lisboa.pt",
    "source:pkey": "9_164",
    "start_date": "1993",
    "website": "http://www.cm-lisboa.pt/equipamentos/equipamento/info/infancia"
  }
},
{
  "type": "node",
  "id": 5614011677,
  "lat": 38.7898951,
  "lon": -9.1074108,
  "tags": {
    "addr:city": "Sacavém",
    "addr:postcode": "2685",
    "addr:street": "Rua Cooperativa A Sacavenense",
    "addr:unit": "Loja 22A",
    "name": "Lavandaria Self-Service",
    "shop": "laundry"
  }
},
{
  "type": "node",
  "id": 5630843132,
  "lat": 38.7621070,
  "lon": -9.1139071,
  "tags": {
    "addr:city": "Lisboa",
    "addr:housename": "Spacio Shopping Center",
    "addr:postcode": "1800-079",
    "addr:street": "Rua Cidade de Bolama",
    "addr:unit": "Loja 17",
    "branch": "Olivais",
    "brand": "Celeiro",
    "brand:wikidata": "Q114102189",
    "contact:facebook": "celeiro.pt",
    "contact:instagram": "celeiro_viverdecorpoealma",
    "contact:phone": "+351 218 515 063",
    "name": "Celeiro",
    "opening_hours": "Mo-Su 10:00-23:00",
    "organic": "only",
    "ref": "824",
    "shop": "supermarket",
    "source:contact": "website",
    "website": "https://www.celeiro.pt/lojas/celeiro-olivais"
  }
},
{
  "type": "node",
  "id": 5630843134,
  "lat": 38.7325140,
  "lon": -9.1302474,
  "tags": {
    "addr:city": "Lisboa",
    "addr:housenumber": "83A",
    "addr:postcode": "1900-342",
    "addr:street": "Rua Morais Soares",
    "branch": "Morais Soares",
    "brand": "Celeiro",
    "brand:wikidata": "Q114102189",
    "contact:facebook": "celeiro.pt",
    "contact:instagram": "celeiro_viverdecorpoealma",
    "contact:phone": "+351 218 141 913",
    "name": "Celeiro",
    "opening_hours": "Mo-Fr 09:30-19:30;Sa 09:00-19:00;Su off",
    "organic": "only",
    "ref": "802",
    "shop": "supermarket",
    "source:contact": "website",
    "website": "https://www.celeiro.pt/lojas/celeiro-morais-soares"
  }
},
{
  "type": "node",
  "id": 5630843160,
  "lat": 38.7431912,
  "lon": -9.1384251,
  "tags": {
    "addr:city": "Lisboa",
    "addr:housenumber": "12",
    "addr:postcode": "1000-261",
    "addr:street": "Avenida de Roma",
    "branch": "Avenida de Roma",
    "brand": "Celeiro",
    "brand:wikidata": "Q114102189",
    "contact:facebook": "celeiro.pt",
    "contact:instagram": "celeiro_viverdecorpoealma",
    "contact:phone": "+351 218 486 908",
    "name": "Celeiro",
    "opening_hours": "Mo-Sa 09:00-20:00; Su 10:00-19:00",
    "organic": "only",
    "ref": "821",
    "shop": "supermarket",
    "source:contact": "website",
    "website": "https://www.celeiro.pt/lojas/celeiro-av-roma"
  }
},
{
  "type": "node",
  "id": 5631421806,
  "lat": 38.7565870,
  "lon": -9.0970793,
  "tags": {
    "addr:city": "Lisboa",
    "addr:country": "PT",
    "addr:housenumber": "3",
    "addr:postcode": "1050-134",
    "addr:street": "Alameda dos Oceanos",
    "addr:unit": "Loja 3.14.02G",
    "email": "geral@bioino.pt",
    "facebook": "facebook.com/bioino.merceariabio/",
    "name": "BioIno",
    "opening_hours": "Mo-Fr 09:30-20:30;Sa 09:30-19:00",
    "organic": "only",
    "phone": "+351 216 079 246;+351 964 950 699",
    "shop": "supermarket",
    "website": "www.bioino.com"
  }
},
{
  "type": "node",
  "id": 5659141759,
  "lat": 38.7768990,
  "lon": -9.1197726,
  "tags": {
    "addr:housenumber": "16B",
    "addr:street": "Circular Norte do Bairro da Encarnação",
    "amenity": "clinic",
    "name": "Clínica Encarnação"
  }
},
{
  "type": "node",
  "id": 6027673329,
  "lat": 38.7427024,
  "lon": -9.1455852,
  "tags": {
    "addr:city": "Lisboa",
    "addr:postcode": "1000-306",
    "addr:street": "Campo Pequeno",
    "branch": "Campo Pequeno",
    "brand": "Pingo Doce",
    "brand:wikidata": "Q1575057",
    "brand:wikipedia": "pt:Pingo Doce",
    "contact:facebook": "pingodoce",
    "contact:instagram": "pingodoce",
    "contact:linkedin": "https://www.linkedin.com/company/pingo-doce",
    "contact:phone": "+351 938 040 267",
    "contact:tiktok": "pingodoce",
    "contact:youtube": "pingodocept",
    "name": "Pingo Doce",
    "opening_hours": "Mo-Su 08:30-21:30; easter 08:30-21:30",
    "operator": "Jerónimo Martins",
    "payment:cash": "yes",
    "payment:coins": "yes",
    "payment:debit_cards": "yes",
    "payment:mastercard": "yes",
    "payment:visa": "yes",
    "ref": "491",
    "shop": "supermarket",
    "source:contact": "website",
    "source:opening_hours": "website",
    "website": "https://www.pingodoce.pt/lojas/campo-pequeno/"
  }
},
{
  "type": "node",
  "id": 6307188787,
  "lat": 38.7278973,
  "lon": -9.1204862,
  "tags": {
    "addr:housenumber": "49",
    "addr:street": "Rua Braamcamp Freire",
    "addr:unit": "B",
    "payment:cash": "yes",
    "payment:debit_cards": "yes",
    "shop": "convenience"
  }
},
{
  "type": "node",
  "id": 6307214385,
  "lat": 38.7351252,
  "lon": -9.1284006,
  "tags": {
    "name": "113",
    "shop": "supermarket"
  }
},
{
  "type": "node",
  "id": 6307214585,
  "lat": 38.7269840,
  "lon": -9.1216840,
  "tags": {
    "name": "88 D",
    "shop": "supermarket"
  }
},
{
  "type": "node",
  "id": 6307214586,
  "lat": 38.7268670,
  "lon": -9.1209930,
  "tags": {
    "addr:city": "Lisboa",
    "addr:housenumber": "35A",
    "addr:postcode": "1900-424",
    "addr:street": "Rua Sousa Viterbo",
    "shop": "convenience"
  }
},
{
  "type": "node",
  "id": 6482214812,
  "lat": 38.7907193,
  "lon": -9.1018657,
  "tags": {
    "addr:city": "Sacavém",
    "amenity": "pharmacy",
    "dispensing": "yes",
    "drive_through": "no",
    "healthcare": "pharmacy",
    "name": "A Minha Farmácia",
    "opening_hours": "24/7",
    "wheelchair": "yes"
  }
},
{
  "type": "node",
  "id": 6576713685,
  "lat": 38.7550198,
  "lon": -9.1393233,
  "tags": {
    "addr:city": "Lisboa",
    "addr:housenumber": "25 B",
    "addr:postcode": "1700-331",
    "addr:street": "Avenida do Rio de Janeiro",
    "name": "A Mariazinha",
    "opening_hours": "Mo-Sa 09:00-13:30; Mo-Fr 15:00-19:00",
    "phone": "218491562",
    "shop": "supermarket",
    "website": "https://amariazinhacafes.lojasonlinectt.pt/",
    "wheelchair": "yes"
  }
},
{
  "type": "node",
  "id": 6594380814,
  "lat": 38.7413693,
  "lon": -9.1294592,
  "tags": {
    "shop": "convenience"
  }
},
{
  "type": "node",
  "id": 6694997669,
  "lat": 38.7973456,
  "lon": -9.1118319,
  "tags": {
    "name": "Aguinhas",
    "self_service": "no",
    "shop": "laundry"
  }
},
{
  "type": "node",
  "id": 6791353473,
  "lat": 38.7410665,
  "lon": -9.1311855,
  "tags": {
    "shop": "convenience"
  }
},
{
  "type": "node",
  "id": 6791353474,
  "lat": 38.7410699,
  "lon": -9.1313493,
  "tags": {
    "addr:housenumber": "2C",
    "addr:street": "Rua Actriz Virginia",
    "name": "Lavandaria Areeiro",
    "shop": "laundry"
  }
},
{
  "type": "node",
  "id": 6841272194,
  "lat": 38.7413938,
  "lon": -9.1307857,
  "tags": {
    "name": "Passe aqui",
    "shop": "laundry"
  }
},
{
  "type": "node",
  "id": 6919308940,
  "lat": 38.7595630,
  "lon": -9.1362303,
  "tags": {
    "addr:city": "Lisboa",
    "addr:housenumber": "200",
    "addr:postcode": "1700-079",
    "addr:street": "Avenida do Brasil",
    "addr:unit": "R/C Esqº",
    "air_conditioning": "yes",
    "amenity": "clinic",
    "email": "pelviclinic605@gmail.com",
    "fax": "+351 21 848 46 99",
    "healthcare": "clinic",
    "healthcare:speciality": "anaesthetics;cardiology;surgery;general_practice;dermatology;endocrinology;stomatology;gynaecology;dentist;nephrology;neurosurgery;nutrition;proctology;psychotherapy;psychiatry;rheumatology;sexual_therapy;urology",
    "name": "PelviClinic",
    "payment:Multibanco": "yes",
    "phone": "+351 21 848 46 98",
    "website": "https://pelviclinic.pt/"
  }
},
{
  "type": "node",
  "id": 7042011336,
  "lat": 38.7904863,
  "lon": -9.1411807,
  "tags": {
    "name": "Mercearia Fontainhas",
    "shop": "convenience"
  }
},
{
  "type": "node",
  "id": 7921616759,
  "lat": 38.7955994,
  "lon": -9.1121225,
  "tags": {
    "shop": "supermarket"
  }
},
{
  "type": "node",
  "id": 8242762518,
  "lat": 38.7426398,
  "lon": -9.1378372,
  "tags": {
    "addr:city": "Areeiro",
    "addr:housenumber": "24 a/b",
    "addr:postcode": "1000-260",
    "addr:street": "Avenida João XXI",
    "name": "Charcutaria A Diplomata",
    "opening_hours": "Mo-Fr 09:00-19:00 /Sa 09:00- 13:00",
    "phone": "21 848 1260",
    "shop": "supermarket"
  }
},
{
  "type": "node",
  "id": 8377606017,
  "lat": 38.7688198,
  "lon": -9.0965599,
  "tags": {
    "addr:city": "Lisboa",
    "addr:street": "Rua do Pólo Norte",
    "amenity": "clinic",
    "healthcare": "clinic",
    "name": "Interprev"
  }
},
{
  "type": "node",
  "id": 8615545317,
  "lat": 38.7385059,
  "lon": -9.1250259,
  "tags": {
    "addr:housenumber": "1H",
    "addr:street": "Rua Professor Mira Fernandes",
    "name": "Clínica de Roupa Suja",
    "shop": "laundry"
  }
},
{
  "type": "node",
  "id": 8685624864,
  "lat": 38.7752622,
  "lon": -9.0961970,
  "tags": {
    "addr:postcode": "1885-081",
    "branch": "Parque das Nações",
    "brand": "Pingo Doce",
    "brand:wikidata": "Q1575057",
    "brand:wikipedia": "pt:Pingo Doce",
    "contact:facebook": "pingodoce",
    "contact:instagram": "pingodoce",
    "contact:linkedin": "https://www.linkedin.com/company/pingo-doce",
    "contact:phone": "+351 927 989 816",
    "contact:tiktok": "pingodoce",
    "contact:youtube": "pingodocept",
    "name": "Pingo Doce & Go",
    "opening_hours": "Mo-Su 07:00-23:30",
    "ref": "4002",
    "shop": "convenience",
    "source:contact": "website",
    "source:opening_hours": "website",
    "website": "https://www.pingodoce.pt/lojas/pdgo-parque-das-nacoes/"
  }
},
{
  "type": "node",
  "id": 8707664518,
  "lat": 38.7772667,
  "lon": -9.0942289,
  "tags": {
    "amenity": "clinic",
    "healthcare": "clinic",
    "name": "DERMOCLINIC"
  }
},
{
  "type": "node",
  "id": 8766243125,
  "lat": 38.7281502,
  "lon": -9.1273231,
  "tags": {
    "addr:housenumber": "28",
    "addr:street": "Avenida Coronel Eduardo Galhardo",
    "addr:unit": "A",
    "amenity": "pharmacy",
    "contact:facebook": "https://www.facebook.com/farmaciapenhadefranca",
    "drive_through": "no",
    "healthcare": "pharmacy",
    "name": "Farmácia Penha de França"
  }
},
{
  "type": "node",
  "id": 8766243132,
  "lat": 38.7285270,
  "lon": -9.1244530,
  "tags": {
    "shop": "convenience"
  }
},
{
  "type": "node",
  "id": 8766243137,
  "lat": 38.7286798,
  "lon": -9.1250913,
  "tags": {
    "shop": "convenience"
  }
},
{
  "type": "node",
  "id": 8766243138,
  "lat": 38.7287530,
  "lon": -9.1251503,
  "tags": {
    "shop": "laundry"
  }
},
{
  "type": "node",
  "id": 8766243142,
  "lat": 38.7293158,
  "lon": -9.1258155,
  "tags": {
    "shop": "convenience"
  }
},
{
  "type": "node",
  "id": 8766243149,
  "lat": 38.7302387,
  "lon": -9.1271176,
  "tags": {
    "shop": "convenience"
  }
},
{
  "type": "node",
  "id": 8766243152,
  "lat": 38.7307860,
  "lon": -9.1280915,
  "tags": {
    "name": "AlexMark",
    "shop": "convenience"
  }
},