{
  "version": 0.6,
  "generator": "Overpass API 0.7.62.11 87bfad18",
  "osm3s": {
    "timestamp_osm_base": "2026-05-28T18:26:45Z",
    "copyright": "The data included in this document is from www.openstreetmap.org. The data is made available under ODbL."
  },
  "elements": [

{
  "type": "node",
  "id": 494151674,
  "lat": 38.7329903,
  "lon": -9.2054930,
  "tags": {
    "shop": "supermarket"
  }
},
{
  "type": "node",
  "id": 494151781,
  "lat": 38.7340080,
  "lon": -9.2048407,
  "tags": {
    "addr:city": "Lisboa",
    "addr:housenumber": "16",
    "addr:postcode": "1500-534",
    "addr:street": "Rua Rainha Dona Brites",
    "branch": "Super da Boavista",
    "brand": "Amanhecer",
    "brand:wikidata": "Q127510997",
    "contact:email": "superboavista.3943@amanhecer.pt",
    "contact:facebook": "lojasamanhecer",
    "contact:instagram": "lojas.amanhecer",
    "name": "Amanhecer - Super da Boavista",
    "ref": "3943",
    "shop": "supermarket",
    "source:contact": "website",
    "website": "https://amanhecer.pt/lojas/super-da-boavista/"
  }
},
{
  "type": "node",
  "id": 583885964,
  "lat": 38.7109805,
  "lon": -9.2080249,
  "tags": {
    "addr:city": "Lisboa",
    "addr:housenumber": "3A",
    "addr:postcode": "1400-423",
    "addr:street": "Rua Dom Jorge da Costa",
    "addr:suburb": "Restello",
    "brand": "Covirán",
    "contact:website": "http://www.meusuper.pt/",
    "name": "Coviran",
    "opening_hours": "Mo-Fr 08:30-20:30; Sa-Su 09:00-20:00",
    "shop": "supermarket",
    "wheelchair": "yes"
  }
},
{
  "type": "node",
  "id": 593576649,
  "lat": 38.7064514,
  "lon": -9.2052254,
  "tags": {
    "addr:housenumber": "10-B",
    "addr:postcode": "1400-352 Santa Maria de Belém",
    "addr:street": "Rua Tristão Vaz",
    "amenity": "pharmacy",
    "healthcare": "pharmacy",
    "name": "Farmácia Belém"
  }
},
{
  "type": "node",
  "id": 595010406,
  "lat": 38.7070334,
  "lon": -9.2079461,
  "tags": {
    "shop": "supermarket"
  }
},
{
  "type": "node",
  "id": 672358981,
  "lat": 38.7425368,
  "lon": -9.2176544,
  "tags": {
    "addr:postcode": "2720-526",
    "branch": "Damaia",
    "brand": "Pingo Doce",
    "brand:wikidata": "Q1575057",
    "brand:wikipedia": "pt:Pingo Doce",
    "contact:facebook": "pingodoce",
    "contact:instagram": "pingodoce",
    "contact:linkedin": "https://www.linkedin.com/company/pingo-doce",
    "contact:phone": "+351 938 875 423",
    "contact:tiktok": "pingodoce",
    "contact:youtube": "pingodocept",
    "name": "Pingo Doce",
    "opening_hours": "Mo-Su 08:00-21:00; easter 08:00-14:00",
    "ref": "832",
    "shop": "supermarket",
    "source:contact": "website",
    "source:opening_hours": "website",
    "website": "https://www.pingodoce.pt/lojas/damaia/"
  }
},
{
  "type": "node",
  "id": 739539836,
  "lat": 38.7261526,
  "lon": -9.2394537,
  "tags": {
    "amenity": "pharmacy",
    "healthcare": "pharmacy",
    "name": "Central de Carnaxide"
  }
},
{
  "type": "node",
  "id": 739539839,
  "lat": 38.7260652,
  "lon": -9.2404323,
  "tags": {
    "addr:city": "Carnaxide",
    "addr:housenumber": "22",
    "addr:postcode": "2790-128",
    "addr:street": "Avenida de Portugal",
    "addr:unit": "C",
    "branch": "Carnaxide - Centro Comercial Solátia",
    "brand": "Pingo Doce",
    "brand:wikidata": "Q1575057",
    "brand:wikipedia": "pt:Pingo Doce",
    "contact:facebook": "pingodoce",
    "contact:instagram": "pingodoce",
    "contact:linkedin": "https://www.linkedin.com/company/pingo-doce",
    "contact:phone": "+351 938 875 417",
    "contact:tiktok": "pingodoce",
    "contact:youtube": "pingodocept",
    "name": "Pingo Doce",
    "opening_hours": "Mo-Su 08:00-21:30",
    "payment:cash": "yes",
    "payment:coins": "yes",
    "payment:contactless": "yes",
    "payment:credit_cards": "yes",
    "ref": "417",
    "shop": "supermarket",
    "source:contact": "website",
    "website": "https://www.pingodoce.pt/lojas/carnaxide-centro-comercial-solatia/"
  }
},
{
  "type": "node",
  "id": 768963476,
  "lat": 38.7234787,
  "lon": -9.2352560,
  "tags": {
    "name": "24H",
    "shop": "convenience"
  }
},
{
  "type": "node",
  "id": 911793689,
  "lat": 38.7149963,
  "lon": -9.2413666,
  "tags": {
    "addr:housenumber": "27",
    "addr:postcode": "2795-198",
    "addr:street": "Avenida 25 de Abril de 1974",
    "amenity": "pharmacy",
    "healthcare": "pharmacy",
    "name": "Farmácia Marta",
    "opening_hours": "Mo-Fr 09:00-20:00"
  }
},
{
  "type": "node",
  "id": 950396228,
  "lat": 38.7080647,
  "lon": -9.2100822,
  "tags": {
    "addr:city": "São Francisco Xavier",
    "addr:housenumber": "47 Bl I2",
    "addr:postcode": "1400-203",
    "addr:street": "Avenida Ilha da Madeira",
    "amenity": "pharmacy",
    "contact:email": "centraldorestelo@sapo.pt",
    "contact:phone": "+351 213 554 808",
    "dispensing": "yes",
    "healthcare": "pharmacy",
    "name": "Farmácia Central do Restelo",
    "note": "Director Técnico - Ana Paula dos Santos Cabral",
    "opening_hours": "Mo-Sa 09:00-21:00"
  }
},
{
  "type": "node",
  "id": 954710515,
  "lat": 38.6955321,
  "lon": -9.2152348,
  "tags": {
    "addr:housenumber": "7",
    "addr:postcode": "1400-342",
    "addr:street": "Avenida da Torre de Belém",
    "branch": "Restelo",
    "brand": "Pingo Doce",
    "brand:wikidata": "Q1575057",
    "brand:wikipedia": "pt:Pingo Doce",
    "contact:facebook": "pingodoce",
    "contact:instagram": "pingodoce",
    "contact:linkedin": "https://www.linkedin.com/company/pingo-doce",
    "contact:phone": "+351 938 875 438",
    "contact:tiktok": "pingodoce",
    "contact:youtube": "pingodocept",
    "name": "Pingo Doce",
    "opening_hours": "Mo-Su 08:00-21:00; easter 08:00-14:00",
    "ref": "438",
    "shop": "supermarket",
    "source:contact": "website",
    "source:opening_hours": "website",
    "website": "https://www.pingodoce.pt/lojas/restelo/"
  }
},
{
  "type": "node",
  "id": 976667352,
  "lat": 38.7022589,
  "lon": -9.2276203,
  "tags": {
    "amenity": "pharmacy",
    "healthcare": "pharmacy",
    "name": "Miraflores"
  }
},
{
  "type": "node",
  "id": 1025280512,
  "lat": 38.7176060,
  "lon": -9.2645616,
  "tags": {
    "addr:city": "Queijas",
    "addr:housenumber": "24B",
    "addr:postcode": "2790-400",
    "addr:street": "Rua Professor Noronha Feio",
    "check_date": "2026-03-10",
    "contact:phone": "+351 93 308 4697",
    "contact:website": "http://www.thesoapbox.pt/",
    "image": "https://thesoapbox.pt/wp-content/uploads/2024/09/Bloco-ThesoapB.jpg",
    "name": "The Soap Box",
    "opening_hours": "Mo-Su,PH 07:30-22:00",
    "payment:coins": "yes",
    "self_service": "yes",
    "shop": "laundry"
  }
},
{
  "type": "node",
  "id": 1161935387,
  "lat": 38.7421471,
  "lon": -9.2087157,
  "tags": {
    "addr:housenumber": "5; 5A",
    "addr:postcode": "2700",
    "addr:street": "Praceta Fernando Pessoa",
    "amenity": "pharmacy",
    "name": "Farmácia Vaz Martins"
  }
},
{
  "type": "node",
  "id": 1161935392,
  "lat": 38.7384253,
  "lon": -9.2107014,
  "tags": {
    "addr:housenumber": "76 A",
    "addr:postcode": "2700",
    "addr:street": "Estrada do Zambujal",
    "amenity": "pharmacy",
    "name": "Gaspar Pote"
  }
},
{
  "type": "node",
  "id": 1212628304,
  "lat": 38.7117651,
  "lon": -9.1645261,
  "tags": {
    "addr:city": "Lisboa",
    "addr:housenumber": "133",
    "addr:place": "Lapa",
    "addr:postcode": "1350-290",
    "addr:street": "Rua de Santana à Lapa",
    "amenity": "pharmacy",
    "contact:email": "farmacia.alb@sapo.pt",
    "contact:phone": "+ 351 213 963 562",
    "dispensing": "no",
    "fixme": "Number may be 156 instead of 133.",
    "name": "Farmácia Alb"
  }
},
{
  "type": "node",
  "id": 1212671088,
  "lat": 38.7058201,
  "lon": -9.1783620,
  "tags": {
    "addr:city": "Alcântara",
    "addr:housenumber": "30-32b",
    "addr:postcode": "1300-371",
    "addr:street": "Rua dos Lusiadas",
    "amenity": "pharmacy",
    "dispensing": "yes",
    "name": "Farmácia Alquimista"
  }
},
{
  "type": "node",
  "id": 1212694264,
  "lat": 38.7095153,
  "lon": -9.1656351,
  "tags": {
    "addr:city": "Lisboa",
    "addr:country": "PT",
    "addr:housenumber": "66-B",
    "addr:place": "Lapa",
    "addr:postcode": "1350-180",
    "addr:street": "Avenida Infante Santo",
    "amenity": "pharmacy",
    "contact:email": "farmaciaandraderibeiro@gmail.com",
    "contact:phone": "+351 213 966 971",
    "dispensing": "no",
    "drive_through": "no",
    "healthcare": "pharmacy",
    "name": "Farmácia Andrade Ribeiro",
    "wheelchair": "yes"
  }
},
{
  "type": "node",
  "id": 1213082188,
  "lat": 38.7029225,
  "lon": -9.1941724,
  "tags": {
    "addr:city": "Ajuda",
    "addr:housenumber": "25",
    "addr:postcode": "1300-481",
    "addr:street": "Rua dos Quartéis",
    "amenity": "pharmacy",
    "contact:email": "farmaciaboahora@netcabo.pt",
    "contact:phone": "+351 213 617 130",
    "contact:website": "http://farmaciaboahora.pai.pt/",
    "dispensing": "yes",
    "healthcare": "pharmacy",
    "name": "Farmácia Boa-Hora",
    "note": "Director Técnico - Maria Antonieta Filipe Miguel Dias."
  }
},
{
  "type": "node",
  "id": 1213123662,
  "lat": 38.7180911,
  "lon": -9.1647404,
  "tags": {
    "addr:city": "Lisboa",
    "addr:housenumber": "28-A",
    "addr:postcode": "1350-272 Santo Condestável",
    "addr:street": "Rua 4 de Infantaria",
    "amenity": "pharmacy",
    "check_date": "2023-09-09",
    "contact:email": "farmacia.c.fonseca@clix.pt",
    "contact:phone": "+351 213 888 857",
    "contact:website": "https://www.facebook.com/farmacia.castrofonseca",
    "dispensing": "yes",
    "healthcare": "pharmacy",
    "name": "Farmácia Castro Fonseca"
  }
},
{
  "type": "node",
  "id": 1213221725,
  "lat": 38.7171598,
  "lon": -9.2382270,
  "tags": {
    "addr:city": "Linda-a-Velha",
    "addr:housename": "CC Central Park",
    "addr:housenumber": "4, Lj 1.31",
    "addr:postcode": "2795-241",
    "addr:street": "Avenida 25 de Abril de 1974",
    "amenity": "pharmacy",
    "dispensing": "no",
    "healthcare": "pharmacy",
    "name": "Farmácia Central Park"
  }
},
{
  "type": "node",
  "id": 1213293446,
  "lat": 38.7338911,
  "lon": -9.2049139,
  "tags": {
    "addr:housenumber": "LJ 1-2",
    "addr:postcode": "1500-534",
    "addr:street": "Rua Rainha D. Brites",
    "amenity": "pharmacy",
    "dispensing": "no",
    "fixme": "location may not be exact. please correct",
    "name": "Farmácia da Boavista"
  }
},
{
  "type": "node",
  "id": 1213293505,
  "lat": 38.7029113,
  "lon": -9.1812026,
  "tags": {
    "addr:city": "Alcântara",
    "addr:housenumber": "42-B",
    "addr:postcode": "1300-360",
    "addr:street": "Rua Luís de Camões",
    "amenity": "pharmacy",
    "contact:phone": "+351 213 638 625",
    "dispensing": "yes",
    "healthcare": "pharmacy",
    "name": "Farmácia Correia de Azevedo",
    "note": "Director Técnico - Maria Teresa Correia de Azevedo Soares."
  }
},
{
  "type": "node",
  "id": 1213370033,
  "lat": 38.7051207,
  "lon": -9.1771957,
  "tags": {
    "addr:city": "Alcântara",
    "addr:housenumber": "2",
    "addr:postcode": "1300-328",
    "addr:street": "Rua José Dias Coelho",
    "amenity": "pharmacy",
    "contact:email": "farmaciadocalvario@gmail.com",
    "contact:phone": "+351 213 631 635",
    "contact:website": "www.farmaciacalvario.com",
    "dispensing": "yes",
    "healthcare": "pharmacy",
    "name": "Farmácia do Calvário",
    "note": "Responsável Farmacêutico - Iolanda Maria Gomes Soares",
    "opening_hours": "Mo-Fr 07:30-13:00; Sa 08:00-11:00"
  }
},
{
  "type": "node",
  "id": 1213461384,
  "lat": 38.6972539,
  "lon": -9.2030676,
  "tags": {
    "addr:city": "Lisboa",
    "addr:housenumber": "89",
    "addr:postcode": "1300-083",
    "addr:street": "Rua de Belém",
    "amenity": "pharmacy",
    "contact:email": "farmaciadosjeronimos@gmail.com",
    "contact:fax": "+351 213 030 298",
    "contact:phone": "+351 213 011 454",
    "contact:website": "http://www.farmaciabarral.com/farmacia-dos-jeronimos",
    "dispensing": "yes",
    "entrance:step_count": "0",
    "entrance:width": "102cm",
    "healthcare": "pharmacy",
    "name": "Farmácia dos Jerónimos",
    "note": "Responsável Técnico - Pedro Daniel Morais Aragonez",
    "opening_hours": "Mo-Fr 08:00-21:00; Sa,Su 10:00-20:00"
  }
},
{
  "type": "node",
  "id": 1213461417,
  "lat": 38.6984991,
  "lon": -9.2184776,
  "tags": {
    "addr:city": "Belém",
    "addr:housenumber": "11-C",
    "addr:postcode": "1400-139",
    "addr:street": "Rua Duarte Pacheco Pereira",
    "amenity": "pharmacy",
    "contact:phone": "+351 213 031 650",
    "dispensing": "yes",
    "healthcare": "pharmacy",
    "name": "Farmácia do Restelo",
    "opening_hours": "Mo-Sun 9-14 15-19"
  }
},
{
  "type": "node",
  "id": 1213598992,
  "lat": 38.6975683,
  "lon": -9.1959177,
  "tags": {
    "addr:city": "Santa Maria de Belém",
    "addr:housenumber": "326;328",
    "addr:postcode": "1300-340",
    "addr:street": "Rua da Junqueira",
    "amenity": "pharmacy",
    "contact:email": "farmaciagomes@sapo.pt",
    "contact:phone": "+351 213 638 193",
    "dispensing": "yes",
    "healthcare": "pharmacy",
    "name": "Farmácia Gomes Sucessores",
    "note": "Director Técnico - Vítor Manuel Gomes David Silva."
  }
},
{
  "type": "node",
  "id": 1232550015,
  "lat": 38.7050300,
  "lon": -9.1677894,
  "tags": {
    "addr:city": "Lisboa",
    "addr:housenumber": "290",
    "addr:postcode": "1200-745",
    "addr:street": "Rua do Olival",
    "amenity": "pharmacy",
    "contact:phone": "+351 213 961 003",
    "healthcare": "pharmacy",
    "name": "Farmácia Infante Santo",
    "note": "Director Técnico - Maria de Lourdes Coelho Maia."
  }
},
{
  "type": "node",
  "id": 1233134299,
  "lat": 38.6742183,
  "lon": -9.1690183,
  "tags": {
    "addr:housenumber": "6",
    "addr:postcode": "2800",
    "addr:street": "Rua Direita",
    "amenity": "pharmacy",
    "check_date:opening_hours": "2022-03-18",
    "dispensing": "yes",
    "healthcare": "pharmacy",
    "name": "Pragal",
    "opening_hours": "Mo-Su,PH 09:00-24:00"
  }
},
{
  "type": "node",
  "id": 1237566234,
  "lat": 38.7166488,
  "lon": -9.1638289,
  "tags": {
    "addr:city": "Campo de Ourique",
    "addr:housenumber": "42 a 48",
    "addr:postcode": "1350-133",
    "addr:street": "Rua Ferreira Borges",
    "amenity": "pharmacy",
    "dispensing": "yes",
    "healthcare": "pharmacy",
    "name": "Farmácia Linaida",
    "opening_hours": "Mo-Su 08:30-20:00"
  }
},
{
  "type": "node",
  "id": 1237566241,
  "lat": 38.7184073,
  "lon": -9.1679120,
  "tags": {
    "addr:housenumber": "98-B",
    "addr:postcode": "1350-171",
    "addr:street": "Rua de Infantaria 16",
    "amenity": "pharmacy",
    "contact:email": "farmacialobel@gmail.com",
    "contact:phone": "+351 213 888 807",
    "contact:website": "http://maisfarmacia.org/",
    "dispensing": "yes",
    "healthcare": "pharmacy",
    "name": "Farmácia Lobel",
    "name:de": "Apotheke Lobel",
    "opening_hours": "Mo-Fr 08:30-19:00; Sa 09:00-13:00"
  }
},
{
  "type": "node",
  "id": 1237566264,
  "lat": 38.7048548,
  "lon": -9.1783623,
  "tags": {
    "addr:city": "Alcântara",
    "addr:housenumber": "2-B",
    "addr:postcode": "1300-352",
    "addr:street": "Rua Leão de Oliveira",
    "amenity": "pharmacy",
    "contact:email": "farmacia.lisbonense@hotmail.com",
    "contact:phone": "+351 213 637 020",
    "contact:website": "https://www.facebook.com/Farmácia-Lisbonense-600141033397575",
    "dispensing": "yes",
    "healthcare": "pharmacy",
    "name": "Farmácia Lisbonense",
    "note": "Director Técnico - Ana Filipa Esteves Rainha Duarte."
  }
},
{
  "type": "node",
  "id": 1239143811,
  "lat": 38.7133855,
  "lon": -9.1635077,
  "tags": {
    "addr:housenumber": "96",
    "addr:postcode": "1350-294 Lapa",
    "addr:street": "Rua de Santo António à Estrela",
    "amenity": "pharmacy",
    "contact:email": "marques.freire.lsb@farmalink.pt",
    "contact:phone": "+351 213 965 196",
    "dispensing": "no",
    "name": "Farmácia Marques Freire"
  }
},
{
  "type": "node",
  "id": 1239241431,
  "lat": 38.7021733,
  "lon": -9.2016862,
  "tags": {
    "addr:city": "Ajuda",
    "addr:housenumber": "45 B",
    "addr:postcode": "1300-402",
    "addr:street": "Travessa da Memória",
    "amenity": "pharmacy",
    "check_date:opening_hours": "2023-10-04",
    "contact:email": "geral@farmaciamoura.pt",
    "contact:phone": "+351 213 630 944",
    "contact:website": "https://www.facebook.com/Farm%C3%A1cia-Moura-Ajuda-191566341005363/",
    "dispensing": "yes",
    "healthcare": "pharmacy",
    "name": "Farmácia Moura",
    "note": "Director Técnico - Joana Marques Monteiro Telhada.",
    "opening_hours": "Mo-Fr 08:30-20:00; Sa 08:30-13:00"
  }
},
{
  "type": "node",
  "id": 1240465058,
  "lat": 38.6962343,
  "lon": -9.2195701,
  "tags": {
    "addr:city": "Santa Maria de Belém",
    "addr:housenumber": "50;52",
    "addr:postcode": "1400-290",
    "addr:street": "Rua de Pedrouços",
    "amenity": "pharmacy",
    "contact:phone": "+351 213 010 280",
    "contact:website": "www.facebook.com/Farmácia-Sociedade-Higilux-1640964636184095",
    "dispensing": "yes",
    "healthcare": "pharmacy",
    "name": "Farmácia Sociedade Higilux",
    "official_name": "Farmácia Sociedade Higilux, Lda."
  }
},
{
  "type": "node",
  "id": 1240465059,
  "lat": 38.7171780,
  "lon": -9.1665312,
  "tags": {
    "addr:city": "Campo de Ourique",
    "addr:housenumber": "59-B",
    "addr:postcode": "1350-139 Santo Condestável",
    "addr:street": "Rua Francisco Metrass",
    "amenity": "pharmacy",
    "contact:email": "farma.porfirio@gmail.com",
    "contact:phone": "+351 213 963 349",
    "contact:website": "https://pt-pt.facebook.com/Farm%C3%A1cia-Porf%C3%ADrio-151876844877029/",
    "dispensing": "yes",
    "healthcare": "pharmacy",
    "name": "Farmácia Porfírio",
    "opening_hours": "Mo-Fr 09:00-20:00 Sat 09:00-19:00 Sun 10:00-19:00"
  }
},
{
  "type": "node",
  "id": 1240465072,
  "lat": 38.7010911,
  "lon": -9.1915208,
  "tags": {
    "addr:city": "Alcântara",
    "addr:housenumber": "94-A",
    "addr:postcode": "1300-096",
    "addr:street": "Calçada da Boa-Hora",
    "amenity": "pharmacy",
    "contact:email": "sepolfarma@gmail.com",
    "contact:phone": "+351 213 631 958",
    "contact:website": "https://www.facebook.com/farmacia.sepol",
    "dispensing": "yes",
    "healthcare": "pharmacy",
    "name": "Farmácia Sepol",
    "note": "Diretor Técnico - Maria Helena Nobre Caetano (Infarmed - 8/1/2016)"
  }
},
{
  "type": "node",
  "id": 1240465073,
  "lat": 38.7093128,
  "lon": -9.1616177,
  "tags": {
    "addr:housenumber": "105;107",
    "addr:postcode": "1200-701",
    "addr:street": "Rua da Lapa",
    "amenity": "pharmacy",
    "contact:phone": "+351 213 964 414",
    "dispensing": "no",
    "name": "Farmácia Paiva da Costa",
    "official_name": "Farmácia Paiva da Costa, Lda."
  }
},
{
  "type": "node",
  "id": 1240465074,
  "lat": 38.7153143,
  "lon": -9.1643947,
  "tags": {
    "addr:housenumber": "145-F",
    "addr:postcode": "1350-300 Santo Condestável",
    "addr:street": "Rua Saraiva Carvalho",
    "amenity": "pharmacy",
    "contact:email": "farmaciauniao.campodeourique@afarmaciaonline.pt",
    "contact:phone": "+351 213 902 278",
    "contact:website": "http://www.afarmaciaonline.pt",
    "dispensing": "yes",
    "name": "Farmácia União",
    "opening_hours": "Mo-Sa 08:30-21:00; PH,Su 10:00-20:00"
  }
},
{
  "type": "node",
  "id": 1240465094,
  "lat": 38.7104644,
  "lon": -9.1596993,
  "tags": {
    "addr:housenumber": "52;54",
    "addr:postcode": "1200-702",
    "addr:street": "Rua da Lapa",
    "amenity": "pharmacy",
    "contact:email": "farmacia.lapa@grupo-holon.pt",
    "contact:phone": "+351 213 962 246",
    "contact:website": "http://www.grupo-holon.pt/",
    "dispensing": "yes",
    "name": "Farmácia da Lapa",
    "name:de": "Apotheke da Lapa",
    "old_name": "Farmácia Rodrigues & Aires Lda.",
    "opening_hours": "Mo-Fr 08:30-20:00; Sa 09:00-20:00"
  }
},
{
  "type": "node",
  "id": 1240465098,
  "lat": 38.7064748,
  "lon": -9.1743681,
  "tags": {
    "addr:city": "Alcântara",
    "addr:housenumber": "5-A-B",
    "addr:postcode": "1300-023",
    "addr:street": "Rua de Alcântara",
    "amenity": "pharmacy",
    "contact:phone": "+351 210 953 495",
    "contact:website": "http://farmnogueira.pai.pt",
    "dispensing": "no",
    "healthcare": "pharmacy",
    "name": "Farmácia Nogueira",
    "note": "Director Técnico - Filipa Maria Aleixo Reis de Oliveira."
  }
},
{
  "type": "node",
  "id": 1240465101,
  "lat": 38.7057012,
  "lon": -9.1851438,
  "tags": {
    "addr:city": "Alcântara",
    "addr:housenumber": "2 A",
    "addr:postcode": "1300-320",
    "addr:street": "Rua João de Barros",
    "amenity": "pharmacy",
    "contact:email": "farmaciateles@sapo.pt",
    "contact:phone": "+351 213 638 176",
    "contact:website": "www.farmaciateles.com",
    "dispensing": "yes",
    "name": "Farmácia Teles",
    "note": "Responsável Técnico - Maria Antónia de Assunção Diniz Leitão",
    "opening_hours": "Mo-Fr 09:00-20:00; Sa,Su 09:00-19:00"
  }
},
{
  "type": "node",
  "id": 1240465112,
  "lat": 38.7004374,
  "lon": -9.2255994,
  "tags": {
    "addr:city": "Santa Maria de Belém",
    "addr:housenumber": "18-D",
    "addr:postcode": "1400-122",
    "addr:street": "Rua Dom Jerónimo Osório",
    "amenity": "pharmacy",
    "contact:email": "farmacia.ocidental@gmail.com",
    "contact:fax": "+351 213 032 666",
    "contact:phone": "+351 213 010 256",
    "contact:website": "http://farmacia-ocidental.webnode.pt/",
    "dispensing": "yes",
    "healthcare": "pharmacy",
    "name": "Farmácia Ocidental",
    "opening_hours": "Mo-Fr 08:30-19:30; Sa 09:00-13:00"
  }
},
{
  "type": "node",
  "id": 1240465147,
  "lat": 38.7062490,
  "lon": -9.1748965,
  "tags": {
    "addr:city": "Alcântara",
    "addr:housenumber": "15-A-B",
    "addr:postcode": "1300-023",
    "addr:street": "Rua de Alcântara",
    "amenity": "pharmacy",
    "contact:email": "farmaciaprobidade@gmail.com",
    "contact:phone": "+351 213 638 589",
    "contact:website": "https://www.facebook.com/farmaciaprobidade",
    "dispensing": "yes",
    "healthcare": "pharmacy",
    "name": "Farmácia Probidade",
    "note": "Director Técnico - Alexandra Cristina Dias das Neves"
  }
},
{
  "type": "node",
  "id": 1302881375,
  "lat": 38.7113488,
  "lon": -9.2143709,
  "tags": {
    "addr:postcode": "1400-195",
    "branch": "Restelo",
    "brand": "Pingo Doce",
    "brand:wikidata": "Q1575057",
    "brand:wikipedia": "pt:Pingo Doce",
    "contact:facebook": "pingodoce",
    "contact:instagram": "pingodoce",
    "contact:linkedin": "https://www.linkedin.com/company/pingo-doce",
    "contact:phone": "+351 969 706 946",
    "contact:tiktok": "pingodoce",
    "contact:youtube": "pingodocept",
    "name": "Pingo Doce & Go",
    "opening_hours": "Mo-Su 07:00-23:30",
    "ref": "4001",
    "shop": "convenience",
    "source:contact": "website",
    "source:opening_hours": "website",
    "website": "https://www.pingodoce.pt/lojas/pdgo-restelo/"
  }
},
{
  "type": "node",
  "id": 1427043401,
  "lat": 38.7050295,
  "lon": -9.1793673,
  "tags": {
    "addr:city": "Lisboa",
    "addr:housenumber": "6",
    "addr:postcode": "1300-350",
    "addr:street": "Rua Leão de Oliveira",
    "addr:suburb": "Alcântara",
    "branch": "Lisboa - Rua Leão de Oliveira",
    "brand": "Lidl",
    "brand:wikidata": "Q151954",
    "brand:wikipedia": "pt:Lidl",
    "contact:facebook": "lidlportugal",
    "contact:instagram": "lidlportugal",
    "contact:linkedin": "https://www.linkedin.com/company/lidl-portugal",
    "contact:phone": "+351 210 207 000",
    "contact:tiktok": "lidl.portugal",
    "contact:youtube": "https://www.youtube.com/user/LidlPortugal",
    "name": "Lidl",
    "name:fa": "لیدل",
    "opening_hours": "Mo-Su 08:00-21:00",
    "ref": "PT00441",
    "shop": "supermarket",
    "source:contact": "website",
    "source:opening_hours": "website",
    "website": "https://www.lidl.pt/s/pt-PT/pesquisa-de-loja/lisboa/rua-leao-de-oliveira-6/",
    "wheelchair": "yes"
  }
},
{
  "type": "node",
  "id": 1461248127,
  "lat": 38.6677540,
  "lon": -9.1877740,
  "tags": {
    "amenity": "pharmacy",
    "dispensing": "yes",
    "healthcare": "pharmacy",
    "name": "Farmácia Guerreiro"
  }
},
{
  "type": "node",
  "id": 1467720218,
  "lat": 38.7147864,
  "lon": -9.2144559,
  "tags": {
    "shop": "convenience"
  }
},
{
  "type": "node",
  "id": 1468348691,
  "lat": 38.7119317,
  "lon": -9.2135761,
  "tags": {
    "addr:housenumber": "44A",
    "addr:street": "Rua Gregório Lopes",
    "amenity": "pharmacy",
    "contact:email": "fenix.restelo@gmail.com",
    "contact:phone": "+351 213 021 063",
    "dispensing": "yes",
    "healthcare": "pharmacy",
    "name": "Farmácia Fénix",
    "note": "Responsável Técnico - Rui Celso de Oliveira Coelho da Silva"
  }
},
{
  "type": "node",
  "id": 1534074504,
  "lat": 38.7013973,
  "lon": -9.2499021,
  "tags": {
    "amenity": "pharmacy",
    "healthcare": "pharmacy",
    "name": "Farmácia Santa Sofia"
  }
},
{
  "type": "node",
  "id": 1534074549,
  "lat": 38.7012069,
  "lon": -9.2502045,
  "tags": {
    "name": "Silva & Ramos",
    "official_name": "Silva & Ramos, Lda.",
    "shop": "convenience"
  }
},
{
  "type": "node",
  "id": 1539405898,
  "lat": 38.7292566,
  "lon": -9.2430019,
  "tags": {
    "name": "Palavra Mar",
    "shop": "convenience"
  }
},
{
  "type": "node",
  "id": 1539547490,
  "lat": 38.7240755,
  "lon": -9.2435974,
  "tags": {
    "name": "Loja Chinesa",
    "shop": "convenience"
  }
},
{
  "type": "node",
  "id": 1539555247,
  "lat": 38.7286351,
  "lon": -9.2301810,
  "tags": {
    "amenity": "hospital",
    "emergency": "no",
    "name": "Centro Hospitalar - Reabilitação"
  }
},
{
  "type": "node",
  "id": 1539561228,
  "lat": 38.7224475,
  "lon": -9.2167216,
  "tags": {
    "name": "China MegaStore",
    "shop": "supermarket"
  }
},
{
  "type": "node",
  "id": 1539569584,
  "lat": 38.7136684,
  "lon": -9.2321309,
  "tags": {
    "amenity": "pharmacy",
    "healthcare": "pharmacy",
    "name": "ParaFarmácia"
  }
},
{
  "type": "node",
  "id": 1558080346,
  "lat": 38.7037423,
  "lon": -9.1993440,
  "tags": {
    "addr:city": "Lisboa",
    "addr:housenumber": "170",
    "addr:postcode": "1300-017",
    "addr:street": "Calçada da Ajuda",
    "amenity": "pharmacy",
    "contact:email": "geral@farmacialidiaalmeida.com",
    "contact:phone": "+351 213 637 318",
    "contact:website": "http://www.farmaciaemcasa.pt/index.php/quem-somos/8-quem-somos/156-farmacia-lidia-almeida",
    "dispensing": "yes",
    "healthcare": "pharmacy",
    "name": "Farmácia Lídia Almeida",
    "note": "Director Técnico - Salome Dionisio",
    "opening_hours": "Mo-Fr 09:00-19:00; Sa 09:00-18:00",
    "payment:cash": "yes",
    "payment:coins": "yes",
    "payment:credit_cards": "yes",
    "payment:debit_cards": "yes",
    "payment:mastercard": "yes",
    "payment:telephone_cards": "yes",
    "payment:visa": "yes"
  }
},
{
  "type": "node",
  "id": 1568545892,
  "lat": 38.6989069,
  "lon": -9.2279874,
  "tags": {
    "addr:city": "Algés",
    "addr:housenumber": "22;24;26;28;30",
    "addr:postcode": "1495-001",
    "addr:street": "Rua Major Afonso Pala",
    "branch": "Major Afonso Pala - Oeiras",
    "brand": "My Auchan",
    "brand:wikidata": "Q115800307",
    "brand:wikipedia": "pt:Auchan",
    "contact:email": "apoiocliente@auchan.pt",
    "contact:facebook": "AuchanPortugal",
    "contact:instagram": "auchan_pt",
    "contact:phone": "+351 210 403 270",
    "contact:tiktok": "auchan_pt",
    "contact:youtube": "https://www.youtube.com/channel/UC6FSI7tYO9ISV11U2PHBBYQ",
    "name": "My Auchan",
    "old_name": "Minipreço",
    "opening_hours": "Mo-Su 08:00-21:00",
    "ref": "A38",
    "shop": "convenience",
    "source:contact": "website",
    "source:opening_hours": "website",
    "toilets:wheelchair": "no",
    "website": "https://www.auchan.pt/pt/loja?StoreID=A38"
  }
},
{
  "type": "node",
  "id": 1568545935,
  "lat": 38.6986562,
  "lon": -9.2280638,
  "tags": {
    "amenity": "pharmacy",
    "healthcare": "pharmacy"
  }
},
{
  "type": "node",
  "id": 1568571178,
  "lat": 38.7113155,
  "lon": -9.2281363,
  "tags": {
    "amenity": "pharmacy",
    "healthcare": "pharmacy",
    "name": "Farmácia das Túlipas"
  }
},
{
  "type": "node",
  "id": 1568571189,
  "lat": 38.7131719,
  "lon": -9.2254111,
  "tags": {
    "amenity": "clinic",
    "emergency": "no",
    "healthcare": "clinic",
    "name": "Clínica Joaquim Chaves"
  }
},
{
  "type": "node",
  "id": 1575938441,
  "lat": 38.7269647,
  "lon": -9.2346346,
  "tags": {
    "amenity": "clinic",
    "emergency": "no",
    "healthcare": "clinic",
    "healthcare:speciality": "cardiology",
    "name": "Clínica do Coração"
  }
},
{
  "type": "node",
  "id": 1581599462,
  "lat": 38.6999907,
  "lon": -9.2399574,
  "tags": {
    "addr:city": "Dafundo",
    "addr:housenumber": "43A;43B;43C",
    "addr:postcode": "1495-718",
    "addr:street": "Rua Direita do Dafundo",
    "branch": "Direita do Dafundo - Oeiras",
    "brand": "My Auchan",
    "brand:wikidata": "Q115800307",
    "brand:wikipedia": "pt:Auchan",
    "contact:email": "apoiocliente@auchan.pt",
    "contact:facebook": "AuchanPortugal",
    "contact:instagram": "auchan_pt",
    "contact:phone": "+351 210 403 270",
    "contact:tiktok": "auchan_pt",
    "contact:youtube": "https://www.youtube.com/channel/UC6FSI7tYO9ISV11U2PHBBYQ",
    "name": "My Auchan",
    "old_name": "Minipreço",
    "opening_hours": "Mo-Su 08:00-21:00",
    "ref": "B97",
    "shop": "convenience",
    "source:contact": "website",
    "source:opening_hours": "website",
    "website": "https://www.auchan.pt/pt/loja?StoreID=B97"
  }
},
{
  "type": "node",
  "id": 1584202013,
  "lat": 38.6999611,
  "lon": -9.2404489,
  "tags": {
    "amenity": "pharmacy",
    "healthcare": "pharmacy"
  }
},
{
  "type": "node",
  "id": 1584202130,
  "lat": 38.6992619,
  "lon": -9.2336951,
  "tags": {
    "amenity": "clinic",
    "fixme": "name?",
    "name": "Clínica Privada"
  }
},
{
  "type": "node",
  "id": 1585677486,
  "lat": 38.7054747,
  "lon": -9.1944277,
  "tags": {
    "amenity": "clinic",
    "email": "ucsp.ajuda@arslvt.min-saude.pt",
    "healthcare": "centre",
    "note": "Agrupamento de Centros de Saúde Lisboa Ocidental e Oeiras",
    "phone": "+351 213 600 260",
    "short_name": "USF Ajuda"
  }
},
{
  "type": "node",
  "id": 1586125779,
  "lat": 38.7112249,
  "lon": -9.2458371,
  "tags": {
    "addr:city": "Oeiras",
    "addr:housenumber": "LT 59;LT 60",
    "addr:postcode": "2795-152",
    "addr:street": "Avenida Dom Pedro V",
    "branch": "Dom Pedro V - Oeiras",
    "brand": "My Auchan",
    "brand:wikidata": "Q115800307",
    "brand:wikipedia": "pt:Auchan",
    "contact:email": "apoiocliente@auchan.pt",
    "contact:facebook": "AuchanPortugal",
    "contact:instagram": "auchan_pt",
    "contact:phone": "+351 210 403 270",
    "contact:tiktok": "auchan_pt",
    "contact:youtube": "https://www.youtube.com/channel/UC6FSI7tYO9ISV11U2PHBBYQ",
    "name": "My Auchan",
    "old_name": "Minipreço",
    "opening_hours": "Mo-Su 08:00-21:00",
    "ref": "E59",
    "shop": "convenience",
    "source:contact": "website",
    "source:opening_hours": "website",
    "website": "https://www.auchan.pt/pt/loja?StoreID=E59"
  }
},
{
  "type": "node",
  "id": 1587000944,
  "lat": 38.7037183,
  "lon": -9.1954468,
  "tags": {
    "addr:city": "Lisboa",
    "addr:housenumber": "10C",
    "addr:postcode": "1300-103",
    "addr:street": "Travessa da Boa Hora à Ajuda",
    "name": "Supermercado C.C. Boa-Hora",
    "opening_hours": "Mon- Sun 08:00 - 21:00",
    "payment:apple_pay": "yes",
    "payment:cash": "yes",
    "payment:mbway": "yes",
    "payment:multibanco": "yes",
    "payment:visa": "yes",
    "phone": "21 363 7364",
    "shop": "supermarket"
  }
},
{
  "type": "node",
  "id": 1587080575,
  "lat": 38.7036103,
  "lon": -9.1958947,
  "tags": {
    "addr:city": "Lisboa",
    "addr:housenumber": "16",
    "addr:postcode": "1300-104",
    "addr:street": "Travessa da Boa Hora à Ajuda",
    "amenity": "clinic",
    "emergency": "yes",
    "healthcare": "clinic",
    "name": "Centro Clinico da Ajuda",
    "phone": "+351 213 630 409"
  }
},
{
  "type": "node",
  "id": 1587098180,
  "lat": 38.7048570,
  "lon": -9.1954951,
  "tags": {
    "shop": "convenience"
  }
},
{
  "type": "node",
  "id": 1589678405,
  "lat": 38.7077433,
  "lon": -9.2327109,
  "tags": {
    "amenity": "pharmacy",
    "healthcare": "pharmacy",
    "name": "Farmácia Alto de Algés",
    "wheelchair": "yes"
  }
},
{
  "type": "node",
  "id": 1589678406,
  "lat": 38.7071677,
  "lon": -9.2304979,
  "tags": {
    "name": "Mercearia da Beta",
    "shop": "laundry"
  }
},
{
  "type": "node",
  "id": 1590594113,
  "lat": 38.7058845,
  "lon": -9.2261810,
  "tags": {
    "addr:city": "Oeiras",
    "addr:postcode": "1495-022",
    "branch": "Bombeiros Voluntários de Algés - Oeiras",
    "brand": "My Auchan",
    "brand:wikidata": "Q115800307",
    "brand:wikipedia": "pt:Auchan",
    "contact:email": "apoiocliente@auchan.pt",
    "contact:facebook": "AuchanPortugal",
    "contact:instagram": "auchan_pt",
    "contact:phone": "+351 210 403 270",
    "contact:tiktok": "auchan_pt",
    "contact:youtube": "https://www.youtube.com/channel/UC6FSI7tYO9ISV11U2PHBBYQ",
    "name": "My Auchan",
    "old_name": "Minipreço",
    "ref": "E26",
    "shop": "supermarket",
    "source:contact": "website",
    "website": "https://www.auchan.pt/pt/loja?StoreID=E26"
  }
},
{
  "type": "node",
  "id": 1677698711,
  "lat": 38.6663061,
  "lon": -9.1803108,
  "tags": {
    "addr:postcode": "2805-337",
    "branch": "Pragal",
    "brand": "Pingo Doce",
    "brand:wikidata": "Q1575057",
    "brand:wikipedia": "pt:Pingo Doce",
    "contact:facebook": "pingodoce",
    "contact:instagram": "pingodoce",
    "contact:linkedin": "https://www.linkedin.com/company/pingo-doce",
    "contact:phone": "+351 938 875 450",
    "contact:tiktok": "pingodoce",
    "contact:youtube": "pingodocept",
    "name": "Pingo Doce",
    "opening_hours": "Mo-Su 07:00-21:00; easter 07:00-14:00",
    "ref": "450",
    "shop": "supermarket",
    "source:contact": "website",
    "source:opening_hours": "website",
    "website": "https://www.pingodoce.pt/lojas/pragal/"
  }
},
{
  "type": "node",
  "id": 1704809552,
  "lat": 38.7039658,
  "lon": -9.1750422,
  "tags": {
    "addr:city": "Lisboa",
    "addr:housenumber": "43",
    "addr:postcode": "1300-120",
    "addr:street": "Rua Cascais",
    "branch": "Alcântara",
    "brand": "Pingo Doce",
    "brand:wikidata": "Q1575057",
    "brand:wikipedia": "pt:Pingo Doce",
    "contact:facebook": "pingodoce",
    "contact:instagram": "pingodoce",
    "contact:linkedin": "https://www.linkedin.com/company/pingo-doce",
    "contact:phone": "+351 938 875 559",
    "contact:tiktok": "pingodoce",
    "contact:youtube": "pingodocept",
    "name": "Pingo Doce",
    "opening_hours": "Mo-Su 08:00-21:00; easter 08:00-14:00",
    "ref": "459",
    "shop": "supermarket",
    "source:contact": "website",
    "source:opening_hours": "website",
    "website": "https://www.pingodoce.pt/lojas/alcantara/"
  }
},
{
  "type": "node",
  "id": 1819113879,
  "lat": 38.6705384,
  "lon": -9.1706765,
  "tags": {
    "addr:city": "Pragal",
    "addr:housenumber": "11",
    "addr:postcode": "2805-312",
    "addr:street": "Rua Abel Salazar",
    "branch": "Almada - Pragal",
    "brand": "Lidl",
    "brand:wikidata": "Q151954",
    "brand:wikipedia": "pt:Lidl",
    "contact:facebook": "lidlportugal",
    "contact:instagram": "lidlportugal",
    "contact:linkedin": "https://www.linkedin.com/company/lidl-portugal",
    "contact:phone": "+351 210 207 000",
    "contact:tiktok": "lidl.portugal",
    "contact:youtube": "https://www.youtube.com/user/LidlPortugal",
    "name": "Lidl",
    "name:fa": "لیدل",
    "opening_hours": "PH,Mo-Su 08:00-21:30",
    "ref": "PT00367",
    "shop": "supermarket",
    "source:contact": "website",
    "website": "https://www.lidl.pt/s/pt-PT/pesquisa-de-loja/almada/rua-de-abel-salazar-11/"
  }
},
{
  "type": "node",
  "id": 1962025506,
  "lat": 38.6950760,
  "lon": -9.2125806,
  "tags": {
    "amenity": "pharmacy",
    "healthcare": "pharmacy"
  }
},
{
  "type": "node",
  "id": 2075996117,
  "lat": 38.7100705,
  "lon": -9.2284696,
  "tags": {
    "name": "New life Miraflores",
    "shop": "supermarket"
  }
},
{
  "type": "node",
  "id": 2287823358,
  "lat": 38.7335191,
  "lon": -9.2238189,
  "tags": {
    "name": "Tangerina",
    "shop": "convenience"
  }
},
{
  "type": "node",
  "id": 2287823363,
  "lat": 38.7329291,
  "lon": -9.2241059,
  "tags": {
    "name": "Tangerina",
    "shop": "convenience"
  }
},
{
  "type": "node",
  "id": 2295708194,
  "lat": 38.7060049,
  "lon": -9.2085546,
  "tags": {
    "addr:city": "Lisboa",
    "addr:housenumber": "35 B",
    "addr:postcode": "1400-203",
    "addr:street": "Avenida da Ilha da Madeira",
    "brand": "Supercor",
    "brand:wikidata": "Q6135841",
    "brand:wikipedia": "es:Supercor",
    "name": "Supercor",
    "operator": "El Corte Inglés",
    "phone": "+351 21 304 2100",
    "shop": "supermarket",
    "website": "https://www.elcorteingles.pt/informacao/localizacao_horarios.asp"
  }
},
{
  "type": "node",
  "id": 2340500692,
  "lat": 38.7379606,
  "lon": -9.2222182,
  "tags": {
    "brand": "Minipreço",
    "name": "Minipreço",
    "shop": "supermarket"
  }
},
{
  "type": "node",
  "id": 2340500696,
  "lat": 38.7372483,
  "lon": -9.2223026,
  "tags": {
    "name": "Loja Gourmet",
    "shop": "supermarket"
  }
},
{
  "type": "node",
  "id": 2340500702,
  "lat": 38.7382166,
  "lon": -9.2222917,
  "tags": {
    "amenity": "pharmacy"
  }
},
{
  "type": "node",
  "id": 2473029618,
  "lat": 38.7148278,
  "lon": -9.2376039,
  "tags": {
    "name": "Minimercado O Pomar de Linda-a-Velha",
    "shop": "convenience"
  }
},
{
  "type": "node",
  "id": 2473034291,
  "lat": 38.6998139,
  "lon": -9.2248204,
  "tags": {
    "name": "Jorge",
    "shop": "convenience"
  }
},
{
  "type": "node",
  "id": 2473034384,
  "lat": 38.6997876,
  "lon": -9.2250773,
  "tags": {
    "shop": "convenience"
  }
},
{
  "type": "node",
  "id": 2473316533,
  "lat": 38.7052267,
  "lon": -9.2285727,
  "tags": {
    "opening_hours": "9:00-23:59",
    "shop": "convenience"
  }
},
{
  "type": "node",
  "id": 2473318135,
  "lat": 38.7053054,
  "lon": -9.2285171,
  "tags": {
    "opening_hours": "9:00-23:59",
    "shop": "convenience"
  }
},
{
  "type": "node",
  "id": 2495353824,
  "lat": 38.7195956,
  "lon": -9.2565234,
  "tags": {
    "cuisine": "Congelados",
    "name": "Sinfonia de Sabores",
    "shop": "supermarket"
  }
},
{
  "type": "node",
  "id": 2609607219,
  "lat": 38.6770441,
  "lon": -9.1639154,
  "tags": {
    "addr:city": "Almada",
    "addr:housenumber": "66",
    "addr:postcode": "2800-177",
    "addr:street": "Avenida Dom Nuno Álvares Pereira",
    "branch": "Dom Nuno Álvares Pereira - Almada",
    "brand": "My Auchan",
    "brand:wikidata": "Q115800307",
    "brand:wikipedia": "pt:Auchan",
    "check_date": "2025-02-09",
    "contact:email": "apoiocliente@auchan.pt",
    "contact:facebook": "AuchanPortugal",
    "contact:instagram": "auchan_pt",
    "contact:phone": "+351 210 403 270",
    "contact:tiktok": "auchan_pt",
    "contact:youtube": "https://www.youtube.com/channel/UC6FSI7tYO9ISV11U2PHBBYQ",
    "name": "My Auchan",
    "opening_hours": "Mo-Su 08:30-21:00;Dec 24 08:30-17:00;Dec 31 08:30-18:00;easter, Dec 25, Jan 01 off",
    "operator": "Auchan",
    "operator:wikidata": "Q758603",
    "operator:wikipedia": "pt:Auchan",
    "ref": "417",
    "shop": "convenience",
    "source:contact": "website",
    "source:opening_hours": "website",
    "website": "https://www.auchan.pt/pt/loja?StoreID=417"
  }
},
{
  "type": "node",
  "id": 3101211852,
  "lat": 38.7279057,
  "lon": -9.2198786,
  "tags": {
    "addr:city": "Alfragide",
    "addr:housename": "Centro Comercial Alegro",
    "addr:postcode": "2790-045",
    "addr:street": "Avenida dos Cavaleiros",
    "branch": "Alfragide",
    "brand": "Auchan",
    "brand:wikidata": "Q758603",
    "brand:wikipedia": "pt:Auchan",
    "contact:email": "apoiocliente@auchan.pt",
    "contact:facebook": "AuchanPortugal",
    "contact:instagram": "auchan_pt",
    "contact:phone": "+351 210 403 270",
    "contact:tiktok": "auchan_pt",
    "contact:youtube": "https://www.youtube.com/channel/UC6FSI7tYO9ISV11U2PHBBYQ",
    "internet_access": "wlan",
    "internet_access:fee": "no",
    "name": "Auchan",
    "opening_hours": "Mo-Su 08:30-23:00;easter, Dec 25, Jan 01 off",
    "operator": "Auchan",
    "operator:wikidata": "Q758603",
    "operator:wikipedia": "pt:Auchan",
    "ref": "025",
    "shop": "supermarket",
    "source:contact": "website",
    "source:opening_hours": "website",
    "website": "https://www.auchan.pt/pt/loja?StoreID=025",
    "wheelchair": "yes"
  }
},
{
  "type": "node",
  "id": 3298617705,
  "lat": 38.6776374,
  "lon": -9.1653710,
  "tags": {
    "addr:city": "Almada, Cova da Piedade, Pragal e Cacilhas",
    "addr:street": "Rua Padre Ángelo Fernando Silva",
    "addr:unit": "12",
    "brand": "Meu Super",
    "name": "Meu Super",
    "opening_hours": "Mo-Sa 08:30-20:30; Su 08:30-13:30",
    "shop": "supermarket"
  }
},
{
  "type": "node",
  "id": 3298617711,
  "lat": 38.6766675,
  "lon": -9.1656281,
  "tags": {
    "check_date": "2025-09-17",
    "name": "Mahdi Super Shop",
    "shop": "supermarket"
  }
},
{
  "type": "node",
  "id": 3304669972,
  "lat": 38.6744445,
  "lon": -9.1710864,
  "tags": {
    "leisure": "playground"
  }
},
{
  "type": "node",
  "id": 3883366645,
  "lat": 38.6748520,
  "lon": -9.1670603,
  "tags": {
    "leisure": "playground"
  }
},
{
  "type": "node",
  "id": 3883374298,
  "lat": 38.6742803,
  "lon": -9.1674036,
  "tags": {
    "check_date": "2025-02-09",
    "name": "Bazar Pragal",
    "shop": "convenience"
  }
},
{
  "type": "node",
  "id": 3955794045,
  "lat": 38.6708044,
  "lon": -9.1691424,
  "tags": {
    "amenity": "pharmacy",
    "dispensing": "yes",
    "healthcare": "pharmacy",
    "name": "Farmácia Algarve"
  }
},
{
  "type": "node",
  "id": 4161794846,
  "lat": 38.7007693,
  "lon": -9.2295936,
  "tags": {
    "amenity": "pharmacy",
    "healthcare": "pharmacy",
    "name": "Farmácia Nifo"
  }
},
{
  "type": "node",
  "id": 4314712590,
  "lat": 38.6975479,
  "lon": -9.1946366,
  "tags": {
    "check_date": "2026-02-08",
    "shop": "convenience"
  }
},
{
  "type": "node",
  "id": 4323732617,
  "lat": 38.6581319,
  "lon": -9.2023162,
  "tags": {
    "shop": "convenience"
  }
},
{
  "type": "node",
  "id": 4325438332,
  "lat": 38.6591327,
  "lon": -9.1987743,
  "tags": {
    "shop": "convenience"
  }
},
{
  "type": "node",
  "id": 4326882996,
  "lat": 38.6636122,
  "lon": -9.1994265,
  "tags": {
    "amenity": "clinic",
    "contact:phone": "+351 918 538 030",
    "contact:website": "www.fisioterapiaaodomicilio.com.pt",
    "healthcare": "physiotherapist",
    "name": "Rui Gomes"
  }
},
{
  "type": "node",
  "id": 4326883025,
  "lat": 38.6636876,
  "lon": -9.1984208,
  "tags": {
    "shop": "convenience"
  }
},
{
  "type": "node",
  "id": 4326883264,
  "lat": 38.6638300,
  "lon": -9.1982195,
  "tags": {
    "addr:housenumber": "62",
    "amenity": "pharmacy",
    "name": "Central",
    "opening_hours": "8:00-22h seg-sex"
  }
},
{
  "type": "node",
  "id": 4380084487,
  "lat": 38.7027115,
  "lon": -9.1809868,
  "tags": {
    "addr:city": "Alcântara",
    "addr:housenumber": "26",
    "addr:street": "Rua Luís de Camões",
    "name": "Lava Mais",
    "opening_hours": "Mo-Su 08:00-22:00",
    "phone": "+351 968 923 834",
    "self_service": "yes",
    "shop": "laundry"
  }
},
{
  "type": "node",
  "id": 4380084488,
  "lat": 38.7182866,
  "lon": -9.1642838,
  "tags": {
    "addr:housenumber": "49 A",
    "addr:street": "Rua de Infantaria 16",
    "name": "Lavamais",
    "opening_hours": "Mo-Su 08:00-22:00",
    "phone": "+351 968 923 834",
    "self_service": "yes",
    "shop": "laundry",
    "website": "www.lavamais.pt"
  }
},
{
  "type": "node",
  "id": 4409556428,
  "lat": 38.6948289,
  "lon": -9.2040467,
  "tags": {
    "name": "Tangerina",
    "shop": "convenience"
  }
},
{
  "type": "node",
  "id": 4438880998,
  "lat": 38.7168455,
  "lon": -9.2635907,
  "tags": {
    "addr:city": "Queijas",
    "addr:housenumber": "15D",
    "addr:postcode": "2790-444",
    "addr:street": "Estrada das Várzeas",
    "amenity": "pharmacy",
    "check_date": "2026-03-10",
    "contact:phone": "+351 21 417 0170",
    "drive_through": "no",
    "email": "farmcostapinto@hotmail.com",
    "healthcare": "pharmacy",
    "name": "Farmácia Costa Pinto",
    "opening_hours": "Mo-Fr 09:00-20:00; Sa 09:00-19:00; Su,PH off",
    "source": "local knowledge",
    "wheelchair": "yes"
  }
},
{
  "type": "node",
  "id": 4438882694,
  "lat": 38.7185776,
  "lon": -9.2627486,
  "tags": {
    "addr:housenumber": "22",
    "addr:street": "Rua João XXI",
    "brand": "Covirán",
    "brand:wikidata": "Q61070539",
    "check_date": "2024-09-05",
    "name": "Covirán",
    "name:es": "Covirán",
    "name:pt": "Coviran",
    "shop": "supermarket",
    "wheelchair": "yes"
  }
},
{
  "type": "node",
  "id": 4462567793,
  "lat": 38.7190166,
  "lon": -9.1649744,
  "tags": {
    "name": "Frutaria",
    "name:pt": "Frutaria",
    "opening_hours": "Mo-Sa 08:00-22:00",
    "shop": "convenience"
  }
},
{
  "type": "node",
  "id": 4514385630,
  "lat": 38.6766510,
  "lon": -9.2069740,
  "tags": {
    "shop": "convenience"
  }
},
{
  "type": "node",
  "id": 4656443889,
  "lat": 38.7211729,
  "lon": -9.2215522,
  "tags": {
    "amenity": "pharmacy",
    "healthcare": "pharmacy"
  }
},
{
  "type": "node",
  "id": 4703791573,
  "lat": 38.7061478,
  "lon": -9.1735093,
  "tags": {
    "addr:city": "Lisboa",
    "addr:street": "Rua Prior do Crato",
    "brand": "Continente Bom Dia",
    "brand:wikidata": "Q123570507",
    "name": "Continente Bom Dia",
    "shop": "supermarket"
  }
},
{
  "type": "node",
  "id": 4737432954,
  "lat": 38.6987845,
  "lon": -9.2287825,
  "tags": {
    "shop": "laundry"
  }
},
{
  "type": "node",
  "id": 4783523465,
  "lat": 38.7076404,
  "lon": -9.2061064,
  "tags": {
    "addr:housenumber": "33A",
    "addr:street": "Rua Tristão Vaz",
    "amenity": "pharmacy",
    "contact:email": "farmacia.belem.encomendas@grupo-holon.pt",
    "contact:phone": "+351 213 012 248",
    "contact:website": "http://www.grupo-holon.pt",
    "dispensing": "yes",
    "healthcare": "pharmacy",
    "name": "Farmácia Belém",
    "note": "Responsável Farmacêutico - Francisco Manuel da Silva Mendes"
  }
},
{
  "type": "node",
  "id": 4783523494,
  "lat": 38.6951141,
  "lon": -9.2144664,
  "tags": {
    "addr:housenumber": "172B",
    "addr:street": "Rua Bartolomeu Dias",
    "amenity": "pharmacy",
    "contact:phone": "+351 218 685 264",
    "dispensing": "yes",
    "healthcare": "pharmacy",
    "name": "Farmácia Torre de Belém"
  }
},
{
  "type": "node",
  "id": 4783624125,
  "lat": 38.7161700,
  "lon": -9.1693046,
  "tags": {
    "addr:housenumber": "119",
    "addr:street": "Rua Coelho da Rocha",
    "amenity": "pharmacy",
    "contact:email": "farmaciacondestavel@gmail.com",
    "contact:phone": "+351 213 966 206",
    "contact:website": "https://www.facebook.com/farmaciacondestavel",
    "dispensing": "yes",
    "name": "Farmácia Condestável",
    "official_name": "Farmácia Condestável, Lda."
  }
},
{
  "type": "node",
  "id": 4785637160,
  "lat": 38.7347246,
  "lon": -9.2043761,
  "tags": {
    "addr:housenumber": "R/C Loja 1 e Loja 2",
    "addr:street": "Rua das Magnólias",
    "addr:suburb": "Quarteirão Central A",
    "addr:unit": "Bloco C",
    "amenity": "pharmacy",
    "contact:email": "f25348@farmalink.pt",
    "contact:phone": "+351 217 622 572",
    "contact:website": "http://farboavista.blogspot.com/",
    "dispensing": "yes",
    "name": "Farmácia da Boavista"
  }
},
{
  "type": "node",
  "id": 4837525221,
  "lat": 38.7104113,
  "lon": -9.1615666,
  "tags": {
    "addr:housenumber": "56",
    "addr:postcode": "1200-798",
    "addr:street": "Rua de Santana à Lapa",
    "branch": "Lapa",
    "brand": "Pingo Doce",
    "brand:wikidata": "Q1575057",
    "brand:wikipedia": "pt:Pingo Doce",
    "contact:facebook": "pingodoce",
    "contact:instagram": "pingodoce",
    "contact:linkedin": "https://www.linkedin.com/company/pingo-doce",
    "contact:phone": "+351 938 875 401",
    "contact:tiktok": "pingodoce",
    "contact:youtube": "pingodocept",
    "name": "Pingo Doce",
    "opening_hours": "PH,Mo-Su 08:00-21:00",
    "ref": "401",
    "shop": "supermarket",
    "source:contact": "website",
    "website": "https://www.pingodoce.pt/lojas/lapa/"
  }
},
{
  "type": "node",
  "id": 4919568823,
  "lat": 38.7044403,
  "lon": -9.1992719,
  "tags": {
    "addr:city": "Lisboa",
    "addr:housenumber": "212-216",
    "addr:postcode": "1300-017",
    "addr:street": "Calçada da Ajuda",
    "name": "Minimercado São José da Ajuda",
    "shop": "supermarket"
  }
},
{
  "type": "node",
  "id": 5152152365,
  "lat": 38.7098625,
  "lon": -9.1657449,
  "tags": {
    "addr:city": "Lisboa",
    "addr:housenumber": "68A",
    "addr:postcode": "1350-180",
    "addr:street": "Avenida Infante Santo",
    "brand": "Speed Queen",
    "brand:wikidata": "Q7575499",
    "check_date": "2024-06-27",
    "internet_access": "wlan",
    "name": "Speed Queen",
    "name:de": "Waschsalon",
    "opening_hours": "Mo-Su 08:00-23:00",
    "self_service": "yes",
    "shop": "laundry",
    "website": "https://speedqueeninvestor.com/pt/"
  }
},
{
  "type": "node",
  "id": 5174665775,
  "lat": 38.7167615,
  "lon": -9.2400895,
  "tags": {
    "addr:city": "Linda-a-Velha",
    "addr:housenumber": "1",
    "addr:postcode": "2795-073",
    "addr:street": "Rua Eça de Queiroz",
    "amenity": "clinic",
    "email": "geral@clinicacabralbarreto.pt",
    "healthcare": "clinic",
    "healthcare:speciality": "surgery",
    "name": "Clínica Cabral Barreto",
    "operator": "Cipla",
    "phone": "+351 214 146 393",
    "website": "https://www.clinicacabralbarreto.pt/"
  }
},
{
  "type": "node",
  "id": 5256910060,
  "lat": 38.7054684,
  "lon": -9.1944807,
  "tags": {
    "addr:city": "Lisboa",
    "addr:country": "PT",
    "addr:housenumber": "5",
    "addr:postcode": "1300-250",
    "addr:street": "Travessa das Florindas",
    "amenity": "clinic",
    "email": "ucsp.ajuda@arslvt.min-saude.pt",
    "healthcare": "centre",
    "name": "Unidade de Cuidados de Saúde Personalizados da Ajuda",
    "note": "Agrupamento de Centros de Saúde Lisboa Ocidental e Oeiras",
    "phone": "+351 213 600 260",
    "short_name": "UCSP Ajuda"
  }
},
{
  "type": "node",
  "id": 5256910061,
  "lat": 38.7059071,
  "lon": -9.1851241,
  "tags": {
    "addr:city": "Lisboa",
    "addr:country": "PT",
    "addr:housenumber": "126",
    "addr:postcode": "1349-049",
    "addr:street": "Calçada da Tapada",
    "amenity": "clinic",
    "email": "ucsp.alcantara@arslvt.min-saude.pt",
    "healthcare": "centre",
    "name": "Unidade de Cuidados de Saúde Personalizados de Alcântara",
    "note": "Agrupamento de Centros de Saúde Lisboa Ocidental e Oeiras",
    "phone": "+351 213 630 130;+351 213 630 139",
    "short_name": "UCSP Alcântara"
  }
},
{
  "type": "node",
  "id": 5256910062,
  "lat": 38.7058990,
  "lon": -9.1852769,
  "tags": {
    "addr:city": "Lisboa",
    "addr:country": "PT",
    "addr:housenumber": "126",
    "addr:postcode": "1300-551",
    "addr:street": "Calçada da Tapada",
    "amenity": "clinic",
    "email": "usf.descobertas@arslvt.min-saude.pt",
    "healthcare": "centre",
    "name": "Unidade de Saúde Familiar Descobertas",
    "note": "Agrupamento de Centros de Saúde Lisboa Ocidental e Oeiras",
    "phone": "+351 213 633 035",
    "short_name": "USF Descobertas"
  }
},
{
  "type": "node",
  "id": 5256910076,
  "lat": 38.7139565,
  "lon": -9.1644834,
  "tags": {
    "addr:city": "Lisboa",
    "addr:country": "PT",
    "addr:housenumber": "60",
    "addr:postcode": "1350-230",
    "addr:street": "Rua do Patrocínio",
    "amenity": "clinic",
    "email": "usf.stcondest@arslvt.min-saude.pt",
    "healthcare": "centre",
    "name": "Unidade de Saúde Familiar Santo Condestável",
    "note": "Agrupamento de Centros de Saúde Lisboa Ocidental e Oeiras",
    "phone": "+351 213 913 220",
    "short_name": "USF Santo Condestável"
  }
},
{
  "type": "node",
  "id": 5266919922,
  "lat": 38.6742778,
  "lon": -9.1675671,
  "tags": {
    "addr:housenumber": "6",
    "addr:postcode": "2800-600",
    "addr:street": "Praceta Galileu Saúde Correia",
    "alt_name": "Instituto de Cardiologia Preventiva de Almada",
    "amenity": "clinic",
    "email": "geral@icpa.pt",
    "healthcare": "yes",
    "healthcare:speciality": "general",
    "name": "ICPA Almada",
    "opening_hours": "Mo-Fr 08:30-18:30; Sa 09:00-13:00",
    "phone": "210455400",
    "website": "https://www.icpa.pt/"
  }
},
{
  "type": "node",
  "id": 5295936632,
  "lat": 38.7067084,
  "lon": -9.1582031,
  "tags": {
    "addr:housenumber": "104-102-98",
    "addr:street": "Rua de Santos-o-Velho",
    "atm": "yes",
    "name": "Mercado de Santos",
    "official_name:en": "Portuguese Commercial Bank",
    "official_name:es": "Banco Comercial Português",
    "shop": "convenience"
  }
},
{
  "type": "node",
  "id": 5321209909,
  "lat": 38.6999509,
  "lon": -9.2290880,
  "tags": {
    "addr:city": "Oeiras",
    "addr:housenumber": "19",
    "addr:postcode": "1495-068",
    "addr:street": "Rua General Humberto Delgado",
    "branch": "Algés",
    "brand": "Pingo Doce",
    "brand:wikidata": "Q1575057",
    "brand:wikipedia": "pt:Pingo Doce",
    "contact:facebook": "pingodoce",
    "contact:instagram": "pingodoce",
    "contact:linkedin": "https://www.linkedin.com/company/pingo-doce",
    "contact:phone": "+351 938 875 821",
    "contact:tiktok": "pingodoce",
    "contact:youtube": "pingodocept",
    "name": "Pingo Doce",
    "opening_hours": "Mo-Su 07:30-21:00; easter 07:30-14:00",
    "ref": "821",
    "shop": "supermarket",
    "source:contact": "website",
    "source:opening_hours": "website",
    "website": "https://www.pingodoce.pt/lojas/alges/"
  }
},
{
  "type": "node",
  "id": 5359058352,
  "lat": 38.7057419,
  "lon": -9.2090209,
  "tags": {
    "leisure": "playground"
  }
},
{
  "type": "node",
  "id": 5446364970,
  "lat": 38.7164157,
  "lon": -9.1744119,
  "tags": {
    "access": "yes",
    "description": "Avenida de Ceuta",
    "leisure": "playground",
    "name": "Parque Infantil da Avenida de Ceuta",
    "source": "dadosabertos.cm-lisboa.pt",
    "source:pkey": "319ae96a-ebe4-430f-8228-72bc7348398e"
  }
},
{
  "type": "node",
  "id": 5446364973,
  "lat": 38.7051527,
  "lon": -9.1709521,
  "tags": {
    "access": "yes",
    "description": "Praça da Armada",
    "leisure": "playground",
    "name": "Parque Infantil da Praça da Armada",
    "source": "dadosabertos.cm-lisboa.pt",
    "source:pkey": "23aae1bd-e75b-4ae0-ad99-3f60e64613ac"
  }
},
{
  "type": "node",
  "id": 5446364983,
  "lat": 38.7042764,
  "lon": -9.1845088,
  "tags": {
    "access": "yes",
    "description": "Rua Jau",
    "leisure": "playground",
    "name": "Parque Infantil do Jardim Avelar Brotero",
    "source": "dadosabertos.cm-lisboa.pt",
    "source:pkey": "04acbc47-05fc-4f48-a3aa-ca18c70b66b4"
  }
},
{
  "type": "node",
  "id": 5446364995,
  "lat": 38.7239238,
  "lon": -9.1714494,
  "tags": {
    "access": "yes",
    "description": "Rua da Bela-Flor(antiga Rua A da Quinta da Bela-Flor à Cascalheira)",
    "leisure": "playground",
    "name": "Parque Infantil da Quinta da Bela Flor",
    "source": "dadosabertos.cm-lisboa.pt"
  }
},
{
  "type": "node",
  "id": 5446365019,
  "lat": 38.7313790,
  "lon": -9.1768011,
  "tags": {
    "access": "yes",
    "description": "Rua Padre Domingos Maurício dos Santos",
    "leisure": "playground",
    "name": "Parque Infantil do Parque da Pedra",
    "source": "dadosabertos.cm-lisboa.pt",
    "source:pkey": "99449c04-ffef-410e-b7e0-a693dada0b3f"
  }
},
{
  "type": "node",
  "id": 5446365030,
  "lat": 38.7031092,
  "lon": -9.1968107,
  "tags": {
    "access": "yes",
    "description": "Rua General José Paulo Fernandes",
    "leisure": "playground",
    "name": "Parque Infantil Lisboa Ocidental",
    "source": "dadosabertos.cm-lisboa.pt",
    "source:pkey": "a2708d46-ca37-4b56-8c17-7f9a0a63bbfd"
  }
},
{
  "type": "node",
  "id": 5446365049,
  "lat": 38.7115108,
  "lon": -9.2169124,
  "tags": {
    "access": "yes",
    "description": "Rua do Colégio de São José",
    "leisure": "playground",
    "name": "Parque Infantil da Encosta do Gravato (Aquaparque)",
    "source": "dadosabertos.cm-lisboa.pt"
  }
},
{
  "type": "node",
  "id": 5446365058,
  "lat": 38.7121850,
  "lon": -9.1990484,
  "tags": {
    "access": "yes",
    "description": "Rua Prof. Cid dos Santos",
    "leisure": "playground",
    "name": "Parque Infantil do Bairro 2 de Maio",
    "source": "dadosabertos.cm-lisboa.pt",
    "source:pkey": "0c20ac10-db2f-426a-9af0-1bd66ce51e14"
  }
},
{
  "type": "node",
  "id": 5446365071,
  "lat": 38.7210503,
  "lon": -9.1904975,
  "tags": {
    "access": "yes",
    "description": "Alameda Keil do Amaral",
    "leisure": "playground",
    "name": "Parque Infantil da Rua Keil do Amaral",
    "source": "dadosabertos.cm-lisboa.pt",
    "source:pkey": "f7df5ebe-b476-456e-b4e1-f6c4e7ec0bb6"
  }
},
{
  "type": "node",
  "id": 5446365075,
  "lat": 38.7048998,
  "lon": -9.1792762,
  "tags": {
    "access": "yes",
    "description": "Rua Leão de Oliveira",
    "leisure": "playground",
    "name": "Parque Infantil do Mercado Rosa Agulhas",
    "source": "dadosabertos.cm-lisboa.pt",
    "source:pkey": "e0bf7245-b63e-4fa5-8079-c7bd12d86686"
  }
},
{
  "type": "node",
  "id": 5446365078,
  "lat": 38.7060300,
  "lon": -9.1934213,
  "tags": {
    "access": "yes",
    "description": "Rua Eduardo Bairrada",
    "leisure": "playground",
    "name": "Parque Infantil do Rio Seco",
    "source": "dadosabertos.cm-lisboa.pt"
  }
},
{
  "type": "node",
  "id": 5446365079,
  "lat": 38.7063446,
  "lon": -9.1939122,
  "tags": {
    "access": "yes",
    "description": "Rua Eduardo Bairrada",
    "leisure": "playground",
    "name": "Parque Infantil do Rio Seco 1",
    "source": "dadosabertos.cm-lisboa.pt",
    "source:pkey": "64bcc81c-a6a4-4777-aa3a-dd7192ff0822"
  }
},
{
  "type": "node",
  "id": 5446365093,
  "lat": 38.7270311,
  "lon": -9.1942473,
  "tags": {
    "access": "yes",
    "description": "Estrada de Monsanto",
    "leisure": "playground",
    "name": "Parque Infantil do Monte Verde",
    "source": "dadosabertos.cm-lisboa.pt",
    "source:pkey": "554f1f0c-b5ba-4591-b6cb-8fe686304801"
  }
},
{
  "type": "node",
  "id": 5630843133,
  "lat": 38.7187280,
  "lon": -9.1646892,
  "tags": {
    "addr:city": "Lisboa",
    "addr:housenumber": "34",
    "addr:postcode": "1350-273",
    "addr:street": "Rua do 4 de Infantaria",
    "branch": "Campo de Ourique",
    "brand": "Celeiro",
    "brand:wikidata": "Q114102189",
    "contact:facebook": "celeiro.pt",
    "contact:instagram": "celeiro_viverdecorpoealma",
    "contact:phone": "+351 213 971 648",
    "name": "Celeiro",
    "opening_hours": "Mo-Fr 09:30-20:00;Sa 09:00-19:00;Su 10:00-19:00",
    "organic": "only",
    "ref": "822",
    "shop": "supermarket",
    "source:contact": "website",
    "website": "https://www.celeiro.pt/lojas/celeiro-campo-de-ourique"
  }
},
{
  "type": "node",
  "id": 5631421804,
  "lat": 38.7056414,
  "lon": -9.2047567,
  "tags": {
    "addr:housenumber": "18 C",
    "addr:postcode": "1400-191",
    "addr:street": "Rua Gonçalves Zarco",
    "email": "geral@villabio.pt",
    "facebook": "facebook.com/VillaBio.pt/",
    "name": "VillaBio",
    "opening_hours": "Mo-Fr 09:30-20:00;Sa 11:00-16:00",
    "organic": "only",
    "phone": "+351 213 011 518",
    "shop": "supermarket",
    "start_date": "2015",
    "website": "https://biomiosotis.pt/"
  }
},
{
  "type": "node",
  "id": 6206335524,
  "lat": 38.7179723,
  "lon": -9.1662318,
  "tags": {
    "addr:city": "Campo de Ourique",
    "addr:housenumber": "36",
    "addr:postcode": "1350-144",
    "addr:street": "R. Francisco Metrass",
    "branch": "Francisco Metrass",
    "brand": "Pingo Doce",
    "brand:wikidata": "Q1575057",
    "brand:wikipedia": "pt:Pingo Doce",
    "contact:facebook": "pingodoce",
    "contact:instagram": "pingodoce",
    "contact:linkedin": "https://www.linkedin.com/company/pingo-doce",
    "contact:phone": "+351 938 875 442",
    "contact:tiktok": "pingodoce",
    "contact:youtube": "pingodocept",
    "name": "Pingo Doce",
    "opening_hours": "Mo-Su 08:00-21:00; easter 08:00-14:00",
    "ref": "442",
    "shop": "supermarket",
    "source:contact": "website",
    "source:opening_hours": "website",
    "website": "https://www.pingodoce.pt/lojas/francisco-metrass/"
  }
},
{
  "type": "node",
  "id": 6206337793,
  "lat": 38.7176493,
  "lon": -9.1666312,
  "tags": {
    "addr:city": "Lisboa",
    "addr:housenumber": "32",
    "addr:postcode": "1350-140",
    "addr:street": "Rua Francisco Metrass",
    "branch": "Francisco Metrass - Lisboa",
    "brand": "My Auchan",
    "brand:wikidata": "Q115800307",
    "brand:wikipedia": "pt:Auchan",
    "contact:email": "apoiocliente@auchan.pt",
    "contact:facebook": "AuchanPortugal",
    "contact:instagram": "auchan_pt",
    "contact:phone": "+351 210 403 270",
    "contact:tiktok": "auchan_pt",
    "contact:youtube": "https://www.youtube.com/channel/UC6FSI7tYO9ISV11U2PHBBYQ",
    "name": "My Auchan",
    "old_name": "Minipreço",
    "ref": "E81",
    "shop": "convenience",
    "source:contact": "website",
    "website": "https://www.auchan.pt/pt/loja?StoreID=E81"
  }
},
{
  "type": "node",
  "id": 6414367075,
  "lat": 38.6717385,
  "lon": -9.1781770,
  "tags": {
    "addr:city": "Almada",
    "addr:street": "Rua Vasco da Gama",
    "leisure": "park",
    "name": "Zona Coberta com Mesa"
  }
},
{
  "type": "node",
  "id": 6419296289,
  "lat": 38.7087422,
  "lon": -9.2142215,
  "tags": {
    "addr:housenumber": "67",
    "addr:postcode": "1400-015",
    "addr:street": "Rua António Saldanha",
    "amenity": "clinic",
    "healthcare": "clinic",
    "name": "Up Clinic Restelo",
    "opening_hours": "Mo-Fr 09:00-19:00",
    "phone": "+351925227377"
  }
},
{
  "type": "node",
  "id": 6427585143,
  "lat": 38.7050007,
  "lon": -9.1675981,
  "tags": {
    "addr:housenumber": "282",
    "name": "Minimercado",
    "shop": "convenience"
  }
},
{
  "type": "node",
  "id": 6428884274,
  "lat": 38.6585181,
  "lon": -9.2389748,
  "tags": {
    "addr:housenumber": "11",
    "addr:street": "Rua Bernardo Santareno",
    "addr:unit": "A",
    "name": "Mercadito A Laranjinha",
    "shop": "convenience"
  }
},
{
  "type": "node",
  "id": 6431619600,
  "lat": 38.6781262,
  "lon": -9.1659285,
  "tags": {
    "addr:city": "Almada",
    "addr:street": "Avenida Cristo Rei",
    "addr:unit": "30B",
    "amenity": "pharmacy",
    "dispensing": "yes",
    "healthcare": "pharmacy",
    "name": "Farmácia Cristo Rei",
    "opening_hours": "Mo-Sa 10:00-22:00"
  }
},
{
  "type": "node",
  "id": 6431619601,
  "lat": 38.6782852,
  "lon": -9.1653459,
  "tags": {
    "addr:city": "Almada",
    "addr:street": "Avenida Cristo Rei",
    "addr:unit": "26A",
    "check_date": "2025-02-09",
    "name": "Lavandaria Céu",
    "opening_hours": "Mo-Sa 09:00-20:00",
    "shop": "laundry"
  }
},
{
  "type": "node",
  "id": 6431619607,
  "lat": 38.6782442,
  "lon": -9.1647359,
  "tags": {
    "addr:city": "Almada",
    "addr:street": "Rua Paula Vicente",
    "addr:unit": "18B",
    "check_date": "2025-02-09",
    "name": "A Maria Lava",
    "opening_hours": "08:00-23:00",
    "phone": "+351 964 518 786",
    "shop": "laundry"
  }
},
{
  "type": "node",
  "id": 6431619608,
  "lat": 38.6782487,
  "lon": -9.1646564,
  "tags": {
    "addr:city": "Almada",
    "addr:street": "Rua Paula Vicente",
    "addr:unit": "14",
    "name": "Cantinho da Maria",
    "opening_hours": "Mo-Fr 09:00-19:00",
    "shop": "supermarket"
  }
},
{
  "type": "node",
  "id": 6431896472,
  "lat": 38.6779138,
  "lon": -9.1659993,
  "tags": {
    "addr:street": "Avenida Cristo Rei",
    "name": "Frescos - Luís Filipe Ferreira da Silva",
    "shop": "supermarket"
  }
},
{
  "type": "node",
  "id": 6431896473,
  "lat": 38.6769606,
  "lon": -9.1643793,
  "tags": {
    "amenity": "clinic",
    "check_date": "2025-02-09",
    "healthcare": "yes",
    "healthcare:speciality": "general",
    "name": "Centro de Medicina Integrativo CEMINT",
    "short_name": "Cemint",
    "website": "https://www.cemint.pt"
  }
},
{
  "type": "node",
  "id": 6432737060,
  "lat": 38.6784801,
  "lon": -9.1637011,
  "tags": {
    "addr:city": "Almada",
    "addr:street": "Rua Doutor Julião de Campos",
    "addr:unit": "5A",
    "name": "Mercearia",
    "opening_hours": "Mo-Fr 09:00-19:30",
    "shop": "supermarket"
  }
},
{
  "type": "node",
  "id": 6432737066,
  "lat": 38.6781855,
  "lon": -9.1644067,
  "tags": {
    "addr:city": "Almada",
    "addr:street": "Praça General Humberto Delgado",
    "addr:unit": "2A",
    "amenity": "clinic",
    "check_date": "2025-02-09",
    "healthcare": "clinic",
    "name": "Instituto Médico Cirúrgico",
    "short_name": "IMC"
  }
},
{
  "type": "node",
  "id": 6432906276,
  "lat": 38.6779815,
  "lon": -9.1629597,
  "tags": {
    "addr:city": "Almada",
    "addr:street": "Rua dos Espatatários",
    "addr:unit": "20B",
    "amenity": "clinic",
    "check_date": "2025-09-11",
    "email": "geralclinicacristorei@gmail.com",
    "healthcare": "clinic",
    "name": "Clínica Cristo Rei",
    "phone": "212765250"
  }
},
{
  "type": "node",
  "id": 6436616530,
  "lat": 38.6649084,
  "lon": -9.1888303,
  "tags": {
    "addr:city": "Caparica",
    "addr:housenumber": "55A-B",
    "addr:postcode": "2825-061",
    "addr:street": "Rua da Bela Vista",
    "branch": "Bela Vista - Almada",
    "brand": "My Auchan",
    "brand:wikidata": "Q115800307",
    "brand:wikipedia": "pt:Auchan",
    "contact:email": "apoiocliente@auchan.pt",
    "contact:facebook": "AuchanPortugal",
    "contact:instagram": "auchan_pt",
    "contact:phone": "+351 210 403 270",
    "contact:tiktok": "auchan_pt",
    "contact:youtube": "https://www.youtube.com/channel/UC6FSI7tYO9ISV11U2PHBBYQ",
    "name": "My Auchan",
    "old_name": "Minipreço",
    "ref": "B35",
    "shop": "convenience",
    "source:contact": "website",
    "website": "https://www.auchan.pt/pt/loja?StoreID=B35"
  }
},
{
  "type": "node",
  "id": 6436616531,
  "lat": 38.6648707,
  "lon": -9.1890904,
  "tags": {
    "addr:city": "Caparica",
    "addr:housenumber": "57A",
    "addr:street": "Rua da Bela Vista",
    "name": "Jia Jia",
    "operator": "Privada",
    "shop": "convenience"
  }
},
{
  "type": "node",
  "id": 6436616541,
  "lat": 38.6668097,
  "lon": -9.1916751,
  "tags": {
    "addr:city": "Caparica",
    "addr:housenumber": "37",
    "addr:street": "Rua de Dentro",
    "name": "Miss Bubles",
    "operator": "Privado",
    "shop": "laundry"
  }
},
{
  "type": "node",
  "id": 6436616547,
  "lat": 38.6673524,
  "lon": -9.1893386,
  "tags": {
    "addr:city": "Caparica",
    "addr:housenumber": "73A",
    "addr:postcode": "2825-009",
    "addr:street": "Rua dos 3 Vales",
    "amenity": "pharmacy",
    "dispensing": "yes",
    "healthcare": "pharmacy",
    "name": "Guerreiro",
    "operator": "Privado"
  }
},
{
  "type": "node",
  "id": 6436616558,
  "lat": 38.6670341,
  "lon": -9.1877516,
  "tags": {
    "addr:city": "Caparica",
    "addr:housenumber": "3A",
    "addr:street": "Rua de Dentro",
    "name": "Eurobarratíssimo",
    "operator": "Privado",
    "shop": "convenience"
  }
},
{
  "type": "node",
  "id": 6436616569,
  "lat": 38.6668987,
  "lon": -9.1885565,
  "tags": {
    "addr:city": "Caparica",
    "addr:housenumber": "11B",
    "addr:street": "Rua de Dentro",
    "name": "Lavandaria do Monte",
    "operator": "Privado",
    "shop": "laundry"
  }
},
{
  "type": "node",
  "id": 6436616579,
  "lat": 38.6655949,
  "lon": -9.1870205,
  "tags": {
    "addr:city": "Caparica",
    "addr:housenumber": "60A",
    "addr:street": "Rua de São Lourenço Poente",
    "description": "Mercearia",
    "name": "Praia Vaz",
    "operator": "Privado",
    "shop": "convenience"
  }
},
{
  "type": "node",
  "id": 6436617098,
  "lat": 38.6666643,
  "lon": -9.1831014,
  "tags": {
    "addr:housenumber": "9A",
    "addr:street": "Rua da Bela Vista",
    "name": "Casa Africana",
    "shop": "convenience"
  }
},
{
  "type": "node",
  "id": 6436617103,
  "lat": 38.6666683,
  "lon": -9.1878435,
  "tags": {
    "addr:city": "Caparica",
    "addr:housenumber": "46B",
    "addr:street": "Rua das Quintas",
    "name": "Jocacel",
    "operator": "Privado",
    "shop": "laundry"
  }
},
{
  "type": "node",
  "id": 6436617111,
  "lat": 38.6667427,
  "lon": -9.1875270,
  "tags": {
    "addr:city": "Caparica",
    "addr:housenumber": "42A",
    "addr:street": "Rua das Quintas",
    "name": "Filipão",
    "operator": "Privado",
    "shop": "convenience"
  }
},
{
  "type": "node",
  "id": 6436617116,
  "lat": 38.6670118,
  "lon": -9.1863983,
  "tags": {
    "addr:city": "Caparica",
    "addr:housenumber": "38",
    "addr:postcode": "2825-171",
    "addr:street": "Rua das Quintas",
    "branch": "Quintas - Almada",
    "brand": "My Auchan",
    "brand:wikidata": "Q115800307",
    "brand:wikipedia": "pt:Auchan",
    "contact:email": "apoiocliente@auchan.pt",
    "contact:facebook": "AuchanPortugal",
    "contact:instagram": "auchan_pt",
    "contact:phone": "+351 210 403 270",
    "contact:tiktok": "auchan_pt",
    "contact:youtube": "https://www.youtube.com/channel/UC6FSI7tYO9ISV11U2PHBBYQ",
    "name": "My Auchan",
    "old_name": "Minipreço",
    "ref": "B39",
    "shop": "convenience",
    "source:contact": "website",
    "website": "https://www.auchan.pt/pt/loja?StoreID=B39"
  }
},
{
  "type": "node",
  "id": 6438538588,
  "lat": 38.6724805,
  "lon": -9.1678990,
  "tags": {
    "addr:city": "Almada",
    "addr:housenumber": "1 drt",
    "addr:postcode": "2800-700",
    "addr:street": "Rua de Manuel Parada",
    "check_date": "2025-02-09",
    "name": "Suave Frescura",
    "shop": "laundry"
  }
},
{
  "type": "node",
  "id": 6439749243,
  "lat": 38.6708115,
  "lon": -9.2319999,
  "tags": {
    "addr:city": "Trafaria",
    "addr:housenumber": "1",
    "addr:postcode": "2825-845",
    "addr:street": "Largo José Maria Bernardes",
    "addr:unit": "B/C",
    "amenity": "pharmacy",
    "dispensing": "yes",
    "healthcare": "pharmacy",
    "name": "Farmácia Central da Trafaria",
    "opening_hours": "Seg a Sab das 8:45 às 20; Domingo e Feriados encerrado",
    "phone": "+351 212950816",
    "wheelchair": "yes"
  }
},
{
  "type": "node",
  "id": 6439749246,
  "lat": 38.6698917,
  "lon": -9.2309419,
  "tags": {
    "addr:city": "Trafaria",
    "addr:housenumber": "4",
    "addr:postcode": "2825-845",
    "addr:street": "Travessa da Enxurrada",
    "addr:unit": "A/cave",
    "amenity": "clinic",
    "healthcare": "clinic",
    "name": "Clínica de Análises",
    "opening_hours": "Seg a Sab das 8 às 11; Domingo encerrado"
  }
},
{
  "type": "node",
  "id": 6439763527,
  "lat": 38.6719387,
  "lon": -9.2326588,
  "tags": {
    "addr:city": "Trafaria",
    "addr:housenumber": "37",
    "addr:postcode": "2825-849",
    "addr:street": "Rua 5 de Outubro",
    "branch": "Mercearia O Botas",
    "brand": "Amanhecer",
    "brand:wikidata": "Q127510997",
    "contact:email": "obotas.3294@amanhecer.pt",
    "contact:facebook": "lojasamanhecer",
    "contact:instagram": "lojas.amanhecer",
    "contact:phone": "+351 212 950 009;+351 916 085 626",
    "name": "Amanhecer - Mercearia O Botas",
    "opening_hours": "Mo-Fr 09:00-19:30; Sa 09:00-18:30; Su 09:00-12:30",
    "operator": "Hipermercado Amanhecer",
    "ref": "3294",
    "shop": "supermarket",
    "source:contact": "website",
    "website": "https://amanhecer.pt/lojas/mercearia-o-botas/"
  }
},
{
  "type": "node",
  "id": 6439763528,
  "lat": 38.6719754,
  "lon": -9.2330289,
  "tags": {
    "addr:city": "Trafaria",
    "addr:housenumber": "9",
    "addr:postcode": "2825-502",
    "addr:street": "Largo da República",
    "name": "Cari e Rafa",
    "opening_hours": "Seg a Sab das 8 às 20; Domingo encerrado",
    "shop": "supermarket"
  }
},
{
  "type": "node",
  "id": 6439763531,
  "lat": 38.6721234,
  "lon": -9.2329514,
  "tags": {
    "addr:city": "Trafaria",
    "addr:housenumber": "8",
    "addr:postcode": "2825-886",
    "addr:street": "Largo da República",
    "name": "Trafaria",
    "opening_hours": "Seg a Dom das 9 às 19",
    "shop": "convenience"
  }
},
{
  "type": "node",
  "id": 6441038880,
  "lat": 38.6722533,
  "lon": -9.2330065,
  "tags": {
    "addr:city": "Trafaria",
    "addr:housenumber": "55",
    "addr:postcode": "2825-000",
    "addr:street": "Rua Tenente Maia",
    "amenity": "clinic",
    "healthcare": "clinic",
    "name": "Clínica da Santa Mafalda",
    "opening_hours": "Seg a Sex das 8 às 13 e das 14 às 17; Sabado e domingo encerrado",
    "phone": "+351 212951330"
  }
},
{
  "type": "node",
  "id": 6597150696,
  "lat": 38.6613510,
  "lon": -9.2053135,
  "tags": {
    "ice_cream": "yogurt",
    "name": "Mininova",
    "opening_hours": "Mo-Fr 07:00-20:00, Sa 08:00-13:00",
    "payment:cash": "yes",
    "payment:coins": "yes",
    "payment:notes": "yes",
    "shop": "convenience",
    "website": "https://www.facebook.com/mininovalojadeconveniencia"
  }
},
{
  "type": "node",
  "id": 6757958780,
  "lat": 38.7141784,
  "lon": -9.2157455,
  "tags": {
    "leisure": "playground"
  }
},
{
  "type": "node",
  "id": 6757970570,
  "lat": 38.7129995,
  "lon": -9.2152647,
  "tags": {
    "leisure": "playground"
  }
},
{
  "type": "node",
  "id": 6791631001,
  "lat": 38.7131579,
  "lon": -9.2157565,
  "tags": {
    "building": "apartments",
    "leisure": "playground",
    "name": "Espaço de Kids - Bloco E"
  }
},
{
  "type": "node",
  "id": 7285978552,
  "lat": 38.7049310,
  "lon": -9.1775302,
  "tags": {
    "name": "Minipreço Market",
    "shop": "convenience"
  }
},
{
  "type": "node",
  "id": 7285991639,
  "lat": 38.7019865,
  "lon": -9.1811015,
  "tags": {
    "name": "Loja Alegria",
    "shop": "convenience"
  }
},
{
  "type": "node",
  "id": 7618110856,
  "lat": 38.7409658,
  "lon": -9.2119756,
  "tags": {
    "addr:city": "Amadora",
    "addr:housenumber": "27",
    "addr:postcode": "2610-103",
    "addr:street": "Rua Luís de Camões",
    "addr:suburb": "Quinta de Santa Teresa ou Casalinho",
    "branch": "Águas Livres",
    "brand": "Auchan Supermercado",
    "brand:wikidata": "Q105857776",
    "brand:wikipedia": "pt:Auchan",
    "contact:email": "apoiocliente@auchan.pt",
    "contact:facebook": "AuchanPortugal",
    "contact:instagram": "auchan_pt",
    "contact:phone": "+351 210 403 270",
    "contact:tiktok": "auchan_pt",
    "contact:youtube": "https://www.youtube.com/channel/UC6FSI7tYO9ISV11U2PHBBYQ",
    "name": "Auchan Supermercado",
    "old_name": "Minipreço",
    "opening_hours": "Mo-Su 08:00-21:00",
    "ref": "B86",
    "shop": "supermarket",
    "source:contact": "website",
    "source:opening_hours": "website",
    "website": "https://www.auchan.pt/pt/loja?StoreID=B86"
  }
},
{
  "type": "node",
  "id": 7897818785,
  "lat": 38.7077158,
  "lon": -9.2253277,
  "tags": {
    "addr:city": "Lisboa",
    "addr:housenumber": "80A",
    "addr:postcode": "1495-023",
    "addr:street": "Avenida dos Bombeiros Voluntários de Algés",
    "amenity": "pharmacy",
    "contact:phone": "+351218160760",
    "dispensing": "yes",
    "electricity": "grid",
    "healthcare": "pharmacy",
    "insurance:health": "unknown",
    "name": "Farmácia Santarita",
    "opening_hours": "Sa-Su 09:00-19:00",
    "operator:type": "private",
    "url": "https://www.google.pt/maps/place/Farm%C3%A1cia+Santarita/@38.7076923,-9.2254627,19.74z/data=!4m8!1m2!2m1!1sfarmacia+santarita!3m4!1s0xd1ecc828d318f55:0xda99abdf5acbdead!8m2!3d38.7077479!4d-9.2253184"
  }
},
{
  "type": "node",
  "id": 8662543783,
  "lat": 38.7377880,
  "lon": -9.2259182,
  "tags": {
    "amenity": "clinic",
    "healthcare": "clinic",
    "name": "Bebé da Mamã"
  }
},
{
  "type": "node",
  "id": 8662652394,
  "lat": 38.7393912,
  "lon": -9.2210459,
  "tags": {
    "name": "Lavandaria Moderna",
    "shop": "laundry"
  }
},
{
  "type": "node",
  "id": 8662653054,
  "lat": 38.7386208,
  "lon": -9.2213273,
  "tags": {
    "name": "LinFresh",
    "self_service": "yes",
    "shop": "laundry"
  }
},
{
  "type": "node",
  "id": 8662653057,
  "lat": 38.7379047,
  "lon": -9.2210441,
  "tags": {
    "amenity": "clinic",
    "healthcare": "clinic",
    "name": "Clínica 018"
  }
},
{
  "type": "node",
  "id": 8662686650,
  "lat": 38.7385817,
  "lon": -9.2222561,
  "tags": {
    "addr:city": "Alfragide",
    "addr:housenumber": "34A",
    "addr:street": "Avenida das Laranjeiras",
    "name": "Frutaria da Quinta grande",
    "payment:cash": "yes",
    "shop": "supermarket"
  }
},
{
  "type": "node",
  "id": 8662694109,
  "lat": 38.7366264,
  "lon": -9.2231436,
  "tags": {
    "name": "wash station",
    "self_service": "yes",
    "shop": "laundry"
  }
},
{
  "type": "node",
  "id": 8662734900,
  "lat": 38.7367633,
  "lon": -9.2217501,
  "tags": {
    "addr:city": "Alfragide",
    "addr:housenumber": "1A",
    "addr:postcode": "2610-117",
    "addr:street": "Alameda dos Moinhos",
    "amenity": "clinic",
    "healthcare": "clinic",
    "name": "Clínica Médica - Analises clinicas",
    "opening_hours": "Mo-Fr 08:00-20:00",
    "operator": "CLIMA - Clínica Médica de Alfragide - SCMA",
    "phone": "+351800104004",
    "website": "https://www.clinicamedicadealfragide.pt/"
  }
},
{
  "type": "node",
  "id": 8662743388,
  "lat": 38.7366855,
  "lon": -9.2222559,
  "tags": {
    "addr:city": "Alfragide",
    "addr:housenumber": "14A",
    "addr:postcode": "2610-120",
    "addr:street": "Avenida da Quinta Grande",
    "addr:unit": "Loja B",
    "amenity": "clinic",
    "healthcare": "clinic",
    "name": "Tribo Saúde",
    "opening_hours": "Mo-Sa 08:00-20:00",
    "phone": "+351212447873",
    "website": "https://www.tribosaude.pt/"
  }
},
{
  "type": "node",
  "id": 8662751962,
  "lat": 38.7366879,
  "lon": -9.2228919,
  "tags": {
    "amenity": "clinic",
    "healthcare": "clinic",
    "name": "Centro Médico Girassol"
  }
},
{
  "type": "node",
  "id": 8662784521,
  "lat": 38.7360314,
  "lon": -9.2216095,
  "tags": {
    "amenity": "clinic",
    "healthcare": "clinic",
    "name": "Clima"
  }
},
{
  "type": "node",
  "id": 8685881396,
  "lat": 38.7048792,
  "lon": -9.1811329,
  "tags": {
    "addr:city": "Lisboa",
    "addr:housenumber": "57",
    "addr:postcode": "1300-118",
    "addr:street": "Rua dos Lusíadas",
    "branch": "Alcântara",
    "brand": "Meu Super",
    "brand:wikidata": "Q119948154",
    "contact:facebook": "meusuperoficial",
    "contact:instagram": "meusuperoficial",
    "contact:linkedin": "https://www.linkedin.com/company/meusuperoficial",
    "name": "Meu Super",
    "opening_hours": "Mo-Su 09:00-21:00",
    "ref": "744",
    "shop": "supermarket",
    "source:contact": "website",
    "source:opening_hours": "website",
    "website": "https://www.meusuper.pt/"
  }
},
{
  "type": "node",
  "id": 8685881397,
  "lat": 38.7047412,
  "lon": -9.1813400,
  "tags": {
    "addr:city": "Alcântara",
    "addr:housenumber": "59",
    "addr:postcode": "1300-366",
    "addr:street": "Rua dos Lusíadas",
    "branch": "Lusíadas - Lisboa",
    "brand": "My Auchan",
    "brand:wikidata": "Q115800307",
    "brand:wikipedia": "pt:Auchan",
    "contact:email": "apoiocliente@auchan.pt",
    "contact:facebook": "AuchanPortugal",
    "contact:instagram": "auchan_pt",
    "contact:phone": "+351 210 403 270",
    "contact:tiktok": "auchan_pt",
    "contact:youtube": "https://www.youtube.com/channel/UC6FSI7tYO9ISV11U2PHBBYQ",
    "name": "My Auchan",
    "old_name": "Minipreço",
    "opening_hours": "Mo-Su 08:00-21:00",
    "ref": "A97",
    "shop": "convenience",
    "source:contact": "website",
    "source:opening_hours": "website",
    "website": "https://www.auchan.pt/pt/loja?StoreID=A97"
  }
},
{
  "type": "node",
  "id": 8686028302,
  "lat": 38.7031367,
  "lon": -9.2296757,
  "tags": {
    "name": "Lava No Rio- Lavandaria Self Service",
    "shop": "laundry"
  }
},
{
  "type": "node",
  "id": 8686028313,
  "lat": 38.7012025,
  "lon": -9.2297937,
  "tags": {
    "amenity": "pharmacy",
    "dispensing": "yes",
    "healthcare": "pharmacy",
    "name": "Farmácia Branco"
  }
},
{
  "type": "node",
  "id": 8687846377,
  "lat": 38.7175374,
  "lon": -9.1660807,
  "tags": {
    "addr:city": "Campo de Ourique",
    "addr:housenumber": "28A",
    "addr:postcode": "1350-322",
    "addr:street": "Rua Almeida e Sousa",
    "name": "Maçã de Adão",
    "opening_hours": "Mo-Fr 09:00-19:00",
    "shop": "convenience"
  }
},
{
  "type": "node",
  "id": 8687870049,
  "lat": 38.7163871,
  "lon": -9.1648377,
  "tags": {
    "laundry_service": "no",
    "name": "Lava Mais",
    "self_service": "yes",
    "shop": "laundry",
    "wheelchair": "yes"
  }
},
{
  "type": "node",
  "id": 8694910009,
  "lat": 38.7004236,
  "lon": -9.2332091,
  "tags": {
    "amenity": "clinic",
    "healthcare": "clinic",
    "name": "Urgimédica - Assistência de Saúde"
  }
},
{
  "type": "node",
  "id": 8694939826,
  "lat": 38.7004344,
  "lon": -9.2296456,
  "tags": {
    "addr:city": "Algés",
    "addr:housenumber": "54",
    "addr:postcode": "1495-039",
    "addr:street": "Avenida dos Combatentes da Grande Guerra",
    "branch": "Combatentes da Grande Guerra - Algés",
    "brand": "My Auchan",
    "brand:wikidata": "Q115800307",
    "brand:wikipedia": "pt:Auchan",
    "contact:email": "apoiocliente@auchan.pt",
    "contact:facebook": "AuchanPortugal",
    "contact:instagram": "auchan_pt",
    "contact:phone": "+351 210 403 270",
    "contact:tiktok": "auchan_pt",
    "contact:youtube": "https://www.youtube.com/channel/UC6FSI7tYO9ISV11U2PHBBYQ",
    "name": "My Auchan",
    "opening_hours": "Mo-Su 08:00-21:00; Dec 24 08:00-17:00; Dec 31 08:00-18:00; easter,Dec 25,Jan 01 off",
    "operator": "Auchan",
    "operator:wikidata": "Q758603",
    "operator:wikipedia": "pt:Auchan",
    "ref": "419",
    "shop": "convenience",
    "source:contact": "website",
    "source:opening_hours": "website",
    "website": "https://www.auchan.pt/pt/loja?StoreID=419",
    "wheelchair": "yes"
  }
},
{
  "type": "node",
  "id": 8694939837,
  "lat": 38.6993038,
  "lon": -9.2296909,
  "tags": {
    "amenity": "clinic",
    "healthcare": "clinic",
    "name": "Clínica Médis"
  }
},
{
  "type": "node",
  "id": 8699518981,
  "lat": 38.7116399,
  "lon": -9.2461549,
  "tags": {
    "name": "LavExpress",
    "self_service": "yes",
    "shop": "laundry"
  }
},
{
  "type": "node",
  "id": 8699533016,
  "lat": 38.7150836,
  "lon": -9.2430957,
  "tags": {
    "name": "Padaria Apapol",
    "shop": "convenience"
  }
},
{
  "type": "node",
  "id": 8699570366,
  "lat": 38.7095959,
  "lon": -9.2428596,
  "tags": {
    "name": "Jack Frutaria Minimercado",
    "shop": "supermarket"
  }
},
{
  "type": "node",
  "id": 8752310070,
  "lat": 38.7231134,
  "lon": -9.2347326,
  "tags": {
    "addr:housenumber": "10 C",
    "addr:street": "Avenida do Forte",
    "amenity": "pharmacy",
    "healthcare": "pharmacy",
    "name": "Farmácia Carnaxide",
    "opening_hours": "Mo-Fr 08:30-00:00; Sa, Su 10:00-00:00"
  }
},
{
  "type": "node",
  "id": 9072550418,
  "lat": 38.7426705,
  "lon": -9.2220955,
  "tags": {
    "name": "Prio",
    "shop": "convenience"
  }
},
{
  "type": "node",
  "id": 9521373417,
  "lat": 38.6975347,
  "lon": -9.1944481,
  "tags": {
    "name:en": "Selfservice",
    "shop": "laundry"
  }
},
{
  "type": "node",
  "id": 9734414523,
  "lat": 38.7054117,
  "lon": -9.1772690,
  "tags": {
    "name": "Unilabs",
    "shop": "supermarket"
  }
},
{
  "type": "node",
  "id": 10081005172,
  "lat": 38.6630449,
  "lon": -9.1964681,
  "tags": {
    "leisure": "playground"
  }
},
{
  "type": "node",
  "id": 10117892558,
  "lat": 38.6695550,
  "lon": -9.1882040,
  "tags": {
    "addr:city": "Monte da Caparica",
    "addr:postcode": "2825-023",
    "addr:street": "Rua São Lourenço Poente",
    "amenity": "clinic",
    "email": "usf.vistatejo@arslvt.min-saude.pt",
    "healthcare": "clinic",
    "name": "USF Vista Tejo",
    "operator": "Serviço Nacional de Saúde",
    "operator:short": "SNS",
    "operator:wikidata": "Q1299901",
    "phone": "+351 212946960",
    "url": "www.docvadis.pt/usf-poente/index.html"
  }
},
{
  "type": "node",
  "id": 10117892585,
  "lat": 38.6703321,
  "lon": -9.1709464,
  "tags": {
    "addr:city": "Almada",
    "addr:housenumber": "11",
    "addr:postcode": "2805-313",
    "addr:street": "Rua Abel Salazar",
    "amenity": "clinic",
    "email": "usf.pragal@arslvt.min-saude.pt",
    "healthcare": "clinic",
    "name": "USF São João do Pragal",
    "operator": "Serviço Nacional de Saúde",
    "operator:short": "SNS",
    "operator:wikidata": "Q1299901",
    "phone": "+351 212725530",
    "url": "http://usf-sjoaopragal.wixsite.com/home"
  }
},
{
  "type": "node",
  "id": 10117908421,
  "lat": 38.6696615,
  "lon": -9.1882114,
  "tags": {
    "addr:city": "Monte da Caparica",
    "addr:postcode": "2825-023",
    "addr:street": "Rua São Lourenço Poente",
    "amenity": "clinic",
    "email": "usf.poente@arslvt.min-saude.pt",
    "healthcare": "clinic",
    "name": "USF Poente",
    "operator": "Serviço Nacional de Saúde",
    "operator:short": "SNS",
    "operator:wikidata": "Q1299901",
    "phone": "+351 212945858",
    "url": "www.docvadis.pt/usf-poente/index.html"
  }
},
{
  "type": "node",
  "id": 10213543183,
  "lat": 38.7275723,
  "lon": -9.2188199,
  "tags": {
    "addr:city": "Carnaxide",
    "addr:housename": "Alegro Alfragide",
    "addr:postcode": "2790-045",
    "addr:unit": "Loja 27,28",
    "branch": "Alfragide",
    "brand": "Celeiro",
    "brand:wikidata": "Q114102189",
    "contact:facebook": "celeiro.pt",
    "contact:instagram": "celeiro_viverdecorpoealma",
    "contact:phone": "+351 214 174 686",
    "name": "Celeiro",
    "opening_hours": "Mo-Su 09:00-23:00; Dec 24 09:00-18:00; Dec 31 09:00-19:00",
    "organic": "only",
    "ref": "813",
    "shop": "supermarket",
    "source:contact": "website",
    "source:opening_hours": "website",
    "website": "https://www.celeiro.pt/lojas/celeiro-alfragide"
  }
},
{
  "type": "node",
  "id": 10213543188,
  "lat": 38.7278172,
  "lon": -9.2191338,
  "tags": {
    "amenity": "pharmacy",
    "healthcare": "pharmacy",
    "name": "Farmácia Alegro"
  }
},
{
  "type": "node",
  "id": 10266002753,
  "lat": 38.6766201,
  "lon": -9.1650899,
  "tags": {
    "amenity": "clinic",
    "check_date": "2022-12-15",
    "healthcare": "clinic",
    "name": "Clínica Padre Cruz"
  }
},
{
  "type": "node",
  "id": 10266002758,
  "lat": 38.6768648,
  "lon": -9.1647794,
  "tags": {
    "amenity": "clinic",
    "check_date": "2022-12-15",
    "email": "alm.almada@alm.pt",
    "healthcare": "clinic",
    "healthcare:speciality": "ophthalmology",
    "name": "Alm Oftalmolaser",
    "opening_hours": "Mo-Fr 08:00-20:00; Sa 09:00-13:00",
    "phone": "+351 21 273 8050"
  }
},
{
  "type": "node",
  "id": 10281676805,
  "lat": 38.7011259,
  "lon": -9.2001722,
  "tags": {
    "addr:city": "Lisboa",
    "addr:housenumber": "2",
    "addr:postcode": "1300-016",
    "addr:street": "Rua General João de Almeida",
    "branch": "Calçada da Ajuda",
    "brand": "My Auchan",
    "brand:wikidata": "Q115800307",
    "brand:wikipedia": "pt:Auchan",
    "changing_table": "no",
    "contact:email": "apoiocliente@auchan.pt",
    "contact:facebook": "AuchanPortugal",
    "contact:instagram": "auchan_pt",
    "contact:phone": "+351 210 403 270",
    "contact:tiktok": "auchan_pt",
    "contact:youtube": "https://www.youtube.com/channel/UC6FSI7tYO9ISV11U2PHBBYQ",
    "entrance:kerb:height": "4cm",
    "entrance:step_count": "1",
    "entrance:width": "141cm",
    "name": "My Auchan",
    "opening_hours": "Mo-Su 08:30-21:00;Dec 24 08:30-17:00;Dec 31 08:30-18:00;easter, Dec 25, Jan 01 off",
    "operator": "Auchan",
    "operator:wikidata": "Q758603",
    "operator:wikipedia": "pt:Auchan",
    "ref": "439",
    "shop": "convenience",
    "source:contact": "website",
    "source:opening_hours": "website",
    "website": "https://www.auchan.pt/pt/loja?StoreID=439",
    "wheelchair:turning_circle": "no"
  }
},
{
  "type": "node",
  "id": 10567723356,
  "lat": 38.7274607,
  "lon": -9.2388667,
  "tags": {
    "amenity": "clinic",
    "healthcare": "clinic",
    "name": "Centro de Saúde de Carnaxide"
  }
},
{
  "type": "node",
  "id": 10576551858,
  "lat": 38.7162025,
  "lon": -9.1656034,
  "tags": {
    "addr:city": "Lisboa",
    "addr:housenumber": "11C",
    "addr:postcode": "1350-321",
    "addr:street": "Rua Tomás da Anunciação",
    "alt_name": "ALDI Campo de Ourique",
    "branch": "Campo de Ourique",
    "brand": "Aldi",
    "brand:wikidata": "Q41171373",
    "brand:wikipedia": "pt:Aldi",
    "contact:email": "portugal@aldi.pt",
    "contact:facebook": "AldiSupermercados.pt",
    "contact:instagram": "aldi.portugal",
    "contact:linkedin": "https://linkedin.com/company/aldi-portugal",
    "contact:youtube": "https://www.youtube.com/@aldi.portugal",
    "name": "Aldi",
    "opening_hours": "Mo-Su 08:00-21:00",
    "ref": "PT001099",
    "shop": "supermarket",
    "source:contact": "website",
    "source:opening_hours": "website",
    "website": "https://www.aldi.pt/tools/lojas-e-horarios-de-funcionamento.html/l/campo-de-ourique/rua-tomas-da-anunciacao-11/3591884",
    "wheelchair": "yes"
  }
},
{
  "type": "node",
  "id": 10602771178,
  "lat": 38.6738701,
  "lon": -9.1670622,
  "tags": {
    "check_date": "2025-09-17",
    "name": "Wash House",
    "self_service": "yes",
    "shop": "laundry"
  }
},
{
  "type": "node",
  "id": 10602867138,
  "lat": 38.6741372,
  "lon": -9.1670727,
  "tags": {
    "check_date": "2025-09-17",
    "name": "Mini-Mercado Pragal",
    "shop": "convenience"
  }
},
{
  "type": "node",
  "id": 10602867139,
  "lat": 38.6740260,
  "lon": -9.1670699,
  "tags": {
    "amenity": "clinic",
    "check_date": "2023-08-16",
    "healthcare": "clinic",
    "healthcare:speciality": "physiotherapy",
    "name": "Raquel Saraiva Fisioterapia",
    "phone": "+351 936 077 838",
    "website": "https://www.raquelsaraiva.pt"
  }
},
{
  "type": "node",
  "id": 10899029297,
  "lat": 38.7031875,
  "lon": -9.2013125,
  "tags": {
    "access": "yes",
    "leisure": "playground"
  }
},
{
  "type": "node",
  "id": 11033777276,
  "lat": 38.7182331,
  "lon": -9.2112127,
  "tags": {
    "leisure": "playground",
    "name": "Parque Infantil do Casal da Raposa"
  }
},
{
  "type": "node",
  "id": 11057112890,
  "lat": 38.7009783,
  "lon": -9.2500029,
  "tags": {
    "shop": "convenience"
  }
},
{
  "type": "node",
  "id": 11106057446,
  "lat": 38.6743379,
  "lon": -9.1769041,
  "tags": {
    "amenity": "pharmacy",
    "contact:email": "farmaceuticos@hgo.min-saude.pt",
    "contact:phone": "+351 212 727 246",
    "healthcare": "pharmacy",
    "indoor": "yes",
    "level": "1",
    "name": "Farmácia Hospitalar",
    "opening_hours": "Mo-Fr 08:00-20:00; Sa 09:00-13:00; PH off"
  }
},
{
  "type": "node",
  "id": 11119665640,
  "lat": 38.6777519,
  "lon": -9.1635539,
  "tags": {
    "check_date": "2025-02-11",
    "name": "Express Supermercado",
    "shop": "convenience"
  }
},
{
  "type": "node",
  "id": 11119665641,
  "lat": 38.6775679,
  "lon": -9.1637629,
  "tags": {
    "check_date": "2025-09-17",
    "name": "Alma da Roupa",
    "shop": "laundry"
  }
},
{
  "type": "node",
  "id": 11119847275,
  "lat": 38.6736382,
  "lon": -9.1670535,
  "tags": {
    "amenity": "clinic",
    "check_date": "2025-09-17",
    "healthcare": "clinic",
    "name": "K-med XXI",
    "opening_hours": "Mo-Fr 09:00-13:00,14:00-18:00",
    "phone": "212 748 432; 707 210 021"
  }
},
{
  "type": "node",
  "id": 11189830854,
  "lat": 38.7337587,
  "lon": -9.2055643,
  "tags": {
    "leisure": "playground"
  }
},
{
  "type": "node",
  "id": 11341635913,
  "lat": 38.7184619,
  "lon": -9.1642311,
  "tags": {
    "addr:city": "Campo de Ourique - Lisboa",
    "addr:housenumber": "125",
    "addr:postcode": "1350-129",
    "addr:street": "Rua Ferreira Borges",
    "branch": "Ferreira Borges",
    "brand": "My Auchan",
    "brand:wikidata": "Q115800307",
    "brand:wikipedia": "pt:Auchan",
    "contact:email": "apoiocliente@auchan.pt",
    "contact:facebook": "AuchanPortugal",
    "contact:instagram": "auchan_pt",
    "contact:phone": "+351 210 403 270",
    "contact:tiktok": "auchan_pt",
    "contact:youtube": "https://www.youtube.com/channel/UC6FSI7tYO9ISV11U2PHBBYQ",
    "name": "My Auchan",
    "opening_hours": "Mo-Su 08:30-21:00;Dec 24 08:30-17:00;Dec 31 08:30-18:00;easter, Dec 25, Jan 01 off",
    "operator": "Auchan",
    "operator:wikidata": "Q758603",
    "operator:wikipedia": "pt:Auchan",
    "ref": "436",
    "shop": "convenience",
    "source:contact": "website",
    "source:opening_hours": "website",
    "website": "https://www.auchan.pt/pt/loja?StoreID=436"
  }
},
{
  "type": "node",
  "id": 11787355146,
  "lat": 38.7337928,
  "lon": -9.2204097,
  "tags": {
    "addr:housenumber": "1",
    "addr:street": "Avenida Ivens",
    "addr:unit": "A",
    "amenity": "pharmacy",
    "dispensing": "yes",
    "drive_through": "no",
    "healthcare": "pharmacy",
    "name": "Farmácia Remédios"
  }
},
{
  "type": "node",
  "id": 11826281174,
  "lat": 38.7292808,
  "lon": -9.2366180,
  "tags": {
    "addr:city": "Carnaxide",
    "addr:housenumber": "5",
    "addr:postcode": "2790-140",
    "addr:street": "Rua da Quinta da Nora",
    "addr:unit": "Lojas B e C",
    "amenity": "pharmacy",
    "healthcare": "pharmacy",
    "name": "Farmácia Nova de Carnaxide"
  }
},
{
  "type": "node",
  "id": 11833827489,
  "lat": 38.7277135,
  "lon": -9.2348158,
  "tags": {
    "addr:city": "Carnaxide",
    "addr:housenumber": "1",
    "addr:postcode": "2790-077",
    "addr:street": "Largo Frederico de Freitas",
    "branch": "Mercearia Alegria",
    "brand": "Amanhecer",
    "brand:wikidata": "Q127510997",
    "contact:email": "merceariaalegria.3760@amanhecer.pt",
    "contact:facebook": "lojasamanhecer",
    "contact:instagram": "lojas.amanhecer",
    "contact:phone": "+351 910 121 758",
    "name": "Amanhecer - Mercearia Alegria",
    "ref": "3760",
    "shop": "supermarket",
    "source:contact": "website",
    "website": "https://amanhecer.pt/lojas/mercearia-alegria/"
  }
},
{
  "type": "node",
  "id": 11834056139,
  "lat": 38.7014667,
  "lon": -9.2072504,
  "tags": {
    "addr:city": "Lisboa",
    "addr:housenumber": "2A;2B;2C;2D",
    "addr:postcode": "1400-314",
    "addr:street": "Avenida do Restelo",
    "branch": "Lisboa - Belenenses",
    "brand": "Lidl",
    "brand:wikidata": "Q151954",
    "brand:wikipedia": "pt:Lidl",
    "contact:facebook": "lidlportugal",
    "contact:instagram": "lidlportugal",
    "contact:linkedin": "https://www.linkedin.com/company/lidl-portugal",
    "contact:phone": "+351 210 207 000",
    "contact:tiktok": "lidl.portugal",
    "contact:youtube": "https://www.youtube.com/user/LidlPortugal",
    "name": "Lidl",
    "opening_hours": "Mo-Su 08:00-21:30",
    "ref": "PT00529",
    "shop": "supermarket",
    "source:contact": "website",
    "source:opening_hours": "website",
    "website": "https://www.lidl.pt/s/pt-PT/pesquisa-de-loja/lisboa/avenida-do-restelo-2a-2b-2c-2d/"
  }
},
{
  "type": "node",
  "id": 11841607369,
  "lat": 38.7079917,
  "lon": -9.1670932,
  "tags": {
    "addr:city": "Lisboa",
    "addr:housenumber": "58D",
    "addr:postcode": "1350-174",
    "addr:street": "Avenida Infante Santo",
    "addr:unit": "1",
    "name": "KoPo Mart",
    "note": "Adequado para LGBTQ+",
    "opening_hours": "Mo-Fr 10:30-13:00, 14:00-19:00; Sa-Su 10:30-13:00, 14:00-17:00",
    "phone": "+351 218 056 871",
    "shop": "convenience",
    "website": "https://www.kopomart.com"
  }
},
{
  "type": "node",
  "id": 11844637737,
  "lat": 38.7095015,
  "lon": -9.1661777,
  "tags": {
    "addr:city": "Lisboa",
    "addr:housenumber": "66",
    "addr:postcode": "1350-177",
    "addr:street": "Av. Infante Santo",
    "amenity": "pharmacy",
    "healthcare": "pharmacy",
    "name": "FARMÁCIA ESTRELA"
  }
},
{
  "type": "node",
  "id": 11872289181,
  "lat": 38.7063927,
  "lon": -9.2077214,
  "tags": {
    "addr:city": "Belém",
    "addr:housenumber": "1C",
    "addr:postcode": "1400-041",
    "addr:street": "Rua Capitão-Mor Pedro Teixeira",
    "name": "BIOSEC",
    "opening_hours": "Mo-Fr 09:00-19:00 Sat- 9:00-13:00",
    "phone": "213012408",
    "shop": "laundry",
    "website": "https://www.biosec.pt/"
  }
},
{
  "type": "node",
  "id": 11874235298,
  "lat": 38.7373963,
  "lon": -9.2235644,
  "tags": {
    "addr:city": "Alfragide",
    "addr:housenumber": "10 B",
    "addr:postcode": "2610-074",
    "addr:street": "Avenida das Laranjeiras",
    "name": "Jardim Verde Alfragide",
    "opening_hours": "Mo-Sa 08:00-21:00; Su 08:00-20:00",
    "phone": "+351920 609506",
    "shop": "supermarket"
  }
},
{
  "type": "node",
  "id": 11876777517,
  "lat": 38.6969627,
  "lon": -9.2022239,
  "tags": {
    "amenity": "clinic",
    "healthcare": "clinic",
    "healthcare:speciality": "general",
    "name": "Bombeiros de Campo de Ourique - Cruz Branca"
  }
},
{
  "type": "node",
  "id": 11878771926,
  "lat": 38.6984681,
  "lon": -9.2185170,
  "tags": {
    "addr:city": "Belem",
    "addr:housenumber": "11A",
    "addr:postcode": "1400-139",
    "addr:street": "Rua Duarte Pacheco Pereira",
    "cuisine": "portuguese",
    "name": "Nogal do Restelo",
    "opening_hours": "Mon-Fri 9:00-18:00 // Sat 9:15-14:00",
    "shop": "convenience"
  }
},
{
  "type": "node",
  "id": 11879789141,
  "lat": 38.7201506,
  "lon": -9.1670604,
  "tags": {
    "name": "Lavandaria Self-Service EB",
    "opening_hours": "Mo-Su 08:00-22:00",
    "self_service": "yes",
    "shop": "laundry"
  }
},
{
  "type": "node",
  "id": 11879988565,
  "lat": 38.7205133,
  "lon": -9.1656360,
  "tags": {
    "name": "Engomadoria do Bairro",
    "phone": "+351 928 120 742",
    "shop": "laundry"
  }
},
{
  "type": "node",
  "id": 11882012661,
  "lat": 38.7047627,
  "lon": -9.1683566,
  "tags": {
    "addr:housenumber": "36",
    "shop": "convenience"
  }
},
{
  "type": "node",
  "id": 11883973939,
  "lat": 38.7196946,
  "lon": -9.1657964,
  "tags": {
    "name": "Sistema de Limpeza - AquaCare - Lanvandaria Especializada",
    "shop": "laundry"
  }
},
{
  "type": "node",
  "id": 11884653923,
  "lat": 38.7065881,
  "lon": -9.1674811,
  "tags": {
    "addr:street": "Avenida Infante Santo",
    "name": "Supermarket",
    "shop": "convenience"
  }
},
{
  "type": "node",
  "id": 11885044768,
  "lat": 38.6992422,
  "lon": -9.2053953,
  "tags": {
    "addr:city": "Lisboa",
    "addr:housenumber": "16",
    "addr:postcode": "1400-211",
    "addr:street": "Rua dos Jerónimos",
    "addr:unit": "B",
    "name": "Pomar de Belém",
    "opening_hours": "Mo-Su 08:00-22:00",
    "payment:cash": "yes",
    "payment:credit_cards": "yes",
    "payment:debit_cards": "yes",
    "payment:nfc_mobile_payments": "yes",
    "shop": "convenience"
  }
},